Aileron,Aileron_trim,Elevator,Elevator_Trim,Ruder,Rudder_trim,Flaps,Slats,Speedbrake,Throttle1,Throttle2,Starter1,Starter2,Fuel_pump1,Fuel_pump2,Cutoff1,Cutoff2,Mixture1,Mixture2,Propeller_pitch1,Propeller_pitch2,Magnetos1,Magnetos2,Ignition1,Ignition2,Brake_left,Brake_right,Brake_parking,Steering,Gear_down,Gear_position,Gear_position1,Gear_position2,Gear_position3,Gear_position4,Engine_pump1,Engine_pump2,Electric_pump1,Electric_pump2,Battery_switch,External_power,APU_Generator,Engage_autopilot,Heading_select,Altitude_select,Bank_angle_select,Vertical_speed_select,Speed_select,Latitude_deg,Longitude_deg,Altitude_ft,Roll_deg,Pitch_deg,Heading_deg,Side_slip_rad,Airspeed_kt,Glideslope,Mach,Speed_down_fps,Speed_east_fps,Speed_nort_fps,uBody_fps,vBody_fps,wBody_fps,Vertical_speed_fps,nlf_acceleration,ned_down_accel_fps_sec,ned_east_accel_fps_sec,ned_north_accel_fps_sec,pilot_x_accel_fps_sec,pilot_y_accel_fps_sec,pilot_z_accel_fps_sec,elevator_pos_norm,flap_pos_norm,left_aileron_pos_norm,right_aileron_pos_norm,rudder_pos_norm,engine_running,rpm
0.000000,0.027000,0.000000,0.000000,0.000000,0.000000,0.000000,0.000000,0.000000,0.000000,0.000000,0.000000,0.000000,0.000000,0.000000,1.000000,1.000000,1.000000,1.000000,1.000000,1.000000,3.000000,0.000000,0.000000,0.000000,0.000000,0.000000,0.000000,0.000000,1.000000,1.000000,1.000000,1.000000,1.000000,1.000000,0,0,0,0,0,0,0,0,0,0,0,0,0,50.1451720000,14.3707760000,2500.000000,0.000000,0.424000,240.000000,0.000000,0.000000,0.000000,0.000000,0.000000,0.000000,0.000000,0.000000,0.000000,0.000000,0.000000,0.000000,0.000000,0.000000,0.000000,0.000000,0.000000,-32.000000,0.000000,0.000000,0.000000,0.000000,0.000000,1.000000,3000.000000
-0.000000,0.027000,0.000000,0.000000,-0.000015,-0.000015,0.000000,0.000000,0.000000,0.000000,0.000000,0.000000,0.000000,0.000000,0.000000,1.000000,1.000000,1.000000,1.000000,1.000000,1.000000,3.000000,0.000000,0.000000,0.000000,0.999985,0.999985,0.000000,0.000000,1.000000,1.000000,1.000000,1.000000,1.000000,1.000000,0,0,0,0,0,0,0,0,0,0,0,0,0,50.1451720000,14.3707760000,2500.000000,0.000000,0.424000,240.000000,0.000000,0.000000,0.000000,0.000000,0.000000,0.000000,0.000000,0.000000,0.000000,0.000000,0.000000,0.000000,0.000000,0.000000,0.000000,0.000000,0.000000,-32.000000,0.000000,0.000000,0.000000,0.000000,0.000000,1.000000,3000.000000
-0.000000,0.027000,0.000000,0.000000,-0.003922,-0.000015,0.000000,0.000000,0.000000,0.000000,0.000000,0.000000,0.000000,0.000000,0.000000,1.000000,1.000000,1.000000,1.000000,1.000000,1.000000,3.000000,0.000000,0.000000,0.000000,0.000000,0.000000,0.000000,0.000000,1.000000,1.000000,1.000000,1.000000,1.000000,1.000000,0,0,0,0,0,0,0,0,0,0,0,0,0,50.1451720000,14.3707760000,2500.000000,0.000000,0.424000,240.000000,0.000000,0.000000,0.000000,0.000000,0.000000,0.000000,0.000000,0.000000,0.000000,0.000000,0.000000,0.000000,0.000000,0.000000,0.000000,0.000000,0.000000,-32.000000,0.000000,0.000000,0.000000,0.000000,0.000000,1.000000,3000.000000
-0.000000,0.027000,0.000000,0.000000,-0.003922,-0.000015,0.000000,0.000000,0.000000,0.000000,0.000000,0.000000,0.000000,0.000000,0.000000,1.000000,1.000000,1.000000,1.000000,1.000000,1.000000,3.000000,0.000000,0.000000,0.000000,0.000000,0.000000,0.000000,0.000000,1.000000,1.000000,1.000000,1.000000,1.000000,1.000000,0,0,0,0,0,0,0,0,0,0,0,0,0,50.1451720000,14.3707760000,2500.000000,0.000000,0.424000,240.000000,0.000000,0.000000,0.000000,0.000000,0.000000,0.000000,0.000000,0.000000,0.000000,0.000000,0.000000,0.000000,0.000000,0.000000,0.000000,0.000000,0.000000,-32.000000,0.000000,0.000000,0.000000,0.000000,0.000000,1.000000,3000.000000
-0.000000,0.027000,0.000000,0.000000,-0.000015,-0.000015,0.000000,0.000000,0.000000,0.000000,0.000000,0.000000,0.000000,0.000000,0.000000,1.000000,1.000000,1.000000,1.000000,1.000000,1.000000,3.000000,0.000000,0.000000,0.000000,0.000000,0.000000,0.000000,0.000000,1.000000,1.000000,1.000000,1.000000,1.000000,1.000000,0,0,0,0,0,0,0,0,0,0,0,0,0,50.1451720000,14.3707760000,2500.000000,0.000000,0.424000,240.000000,0.000000,0.000000,0.000000,0.000000,0.000000,0.000000,0.000000,0.000000,0.000000,0.000000,0.000000,0.000000,0.000000,0.000000,0.000000,0.000000,0.000000,-32.000000,0.000000,0.000000,0.000000,0.000000,0.000000,1.000000,3000.000000
-0.000000,0.027000,0.000000,0.000000,-0.000015,-0.000015,0.000000,0.000000,0.000000,0.000000,0.000000,0.000000,0.000000,0.000000,0.000000,1.000000,1.000000,1.000000,1.000000,1.000000,1.000000,3.000000,0.000000,0.000000,0.000000,0.000000,0.000000,0.000000,0.000000,1.000000,1.000000,1.000000,1.000000,1.000000,1.000000,0,0,0,0,0,0,0,0,0,0,0,0,0,50.1451720000,14.3707760000,2500.000000,0.000000,0.424000,240.000000,0.000000,0.000000,0.000000,0.000000,0.000000,0.000000,0.000000,0.000000,0.000000,0.000000,0.000000,0.000000,0.000000,0.000000,0.000000,0.000000,0.000000,-32.000000,0.000000,0.000000,0.000000,0.000000,0.000000,1.000000,3000.000000
-0.000000,0.027000,0.000000,0.000000,-0.000015,-0.000015,0.000000,0.000000,0.000000,0.000000,0.000000,0.000000,0.000000,0.000000,0.000000,1.000000,1.000000,1.000000,1.000000,1.000000,1.000000,3.000000,0.000000,0.000000,0.000000,0.000000,0.000000,0.000000,0.000000,1.000000,1.000000,1.000000,1.000000,1.000000,1.000000,0,0,0,0,0,0,0,0,0,0,0,0,0,50.1451720000,14.3707760000,2500.000000,0.000000,0.424000,240.000000,0.000000,0.000000,0.000000,0.000000,0.000000,0.000000,0.000000,0.000000,0.000000,0.000000,0.000000,0.000000,0.000000,0.000000,0.000000,0.000000,0.000000,-32.000000,0.000000,0.000000,0.000000,0.000000,0.000000,1.000000,3000.000000
-0.000000,0.027000,0.000000,0.000000,-0.000015,-0.000015,0.000000,0.000000,0.000000,0.000000,0.000000,0.000000,0.000000,0.000000,0.000000,1.000000,1.000000,1.000000,1.000000,1.000000,1.000000,3.000000,0.000000,0.000000,0.000000,0.000000,0.000000,0.000000,0.000000,1.000000,1.000000,1.000000,1.000000,1.000000,1.000000,0,0,0,0,0,0,0,0,0,0,0,0,0,50.1451720000,14.3707760000,2500.000000,0.000000,0.424000,240.000000,0.000000,0.000000,0.000000,0.000000,0.000000,0.000000,0.000000,0.000000,0.000000,0.000000,0.000000,0.000000,0.000000,0.000000,0.000000,0.000000,0.000000,-32.000000,0.000000,0.000000,0.000000,0.000000,0.000000,1.000000,3000.000000
-0.000000,0.027000,0.000000,0.000000,-0.000015,-0.000015,0.000000,0.000000,0.000000,0.000000,0.000000,0.000000,0.000000,0.000000,0.000000,1.000000,1.000000,1.000000,1.000000,1.000000,1.000000,3.000000,0.000000,0.000000,0.000000,0.000000,0.000000,0.000000,0.000000,1.000000,1.000000,1.000000,1.000000,1.000000,1.000000,0,0,0,0,0,0,0,0,0,0,0,0,0,50.1451720000,14.3707760000,2500.000000,0.000000,0.424000,240.000000,0.000000,0.000000,0.000000,0.000000,0.000000,0.000000,0.000000,0.000000,0.000000,0.000000,0.000000,0.000000,0.000000,0.000000,0.000000,0.000000,0.000000,-32.000000,0.000000,0.000000,0.000000,0.000000,0.000000,1.000000,3000.000000
-0.000000,0.027000,0.000000,0.000000,-0.000015,-0.000015,0.000000,0.000000,0.000000,0.000000,0.000000,0.000000,0.000000,0.000000,0.000000,1.000000,1.000000,1.000000,1.000000,1.000000,1.000000,3.000000,0.000000,0.000000,0.000000,0.000000,0.000000,0.000000,0.000000,1.000000,1.000000,1.000000,1.000000,1.000000,1.000000,0,0,0,0,0,0,0,0,0,0,0,0,0,50.1451720000,14.3707760000,2500.000000,0.000000,0.424000,240.000000,0.000000,0.000000,0.000000,0.000000,0.000000,0.000000,0.000000,0.000000,0.000000,0.000000,0.000000,0.000000,0.000000,0.000000,0.000000,0.000000,0.000000,-32.000000,0.000000,0.000000,0.000000,0.000000,0.000000,1.000000,3000.000000
-0.000000,0.027000,0.000000,0.000000,-0.000015,-0.000015,0.000000,0.000000,0.000000,0.000000,0.000000,0.000000,0.000000,0.000000,0.000000,1.000000,1.000000,1.000000,1.000000,1.000000,1.000000,3.000000,0.000000,0.000000,0.000000,0.000000,0.000000,0.000000,0.000000,1.000000,1.000000,1.000000,1.000000,1.000000,1.000000,0,0,0,0,0,0,0,0,0,0,0,0,0,50.1451720000,14.3707760000,2500.000000,0.000000,0.424000,240.000000,0.000000,0.000000,0.000000,0.000000,0.000000,0.000000,0.000000,0.000000,0.000000,0.000000,0.000000,0.000000,0.000000,0.000000,0.000000,0.000000,0.000000,-32.000000,0.000000,0.000000,0.000000,0.000000,0.000000,1.000000,3000.000000
-0.000000,0.027000,0.000000,0.000000,-0.000015,-0.000015,0.000000,0.000000,0.000000,0.000000,0.000000,0.000000,0.000000,0.000000,0.000000,1.000000,1.000000,1.000000,1.000000,1.000000,1.000000,3.000000,0.000000,0.000000,0.000000,0.000000,0.000000,0.000000,0.000000,1.000000,1.000000,1.000000,1.000000,1.000000,1.000000,0,0,0,0,0,0,0,0,0,0,0,0,0,50.1451720000,14.3707760000,2500.000000,0.000000,0.424000,240.000000,0.000000,0.000000,0.000000,0.000000,0.000000,0.000000,0.000000,0.000000,0.000000,0.000000,0.000000,0.000000,0.000000,0.000000,0.000000,0.000000,0.000000,-32.000000,0.000000,0.000000,0.000000,0.000000,0.000000,1.000000,3000.000000
-0.000000,0.027000,0.000000,0.000000,-0.000015,-0.000015,0.000000,0.000000,0.000000,0.000000,0.000000,0.000000,0.000000,0.000000,0.000000,1.000000,1.000000,1.000000,1.000000,1.000000,1.000000,3.000000,0.000000,0.000000,0.000000,0.000000,0.000000,0.000000,0.000000,1.000000,1.000000,1.000000,1.000000,1.000000,1.000000,0,0,0,0,0,0,0,0,0,0,0,0,0,50.1451720000,14.3707760000,2500.000000,0.000000,0.424000,240.000000,0.000000,0.000000,0.000000,0.000000,0.000000,0.000000,0.000000,0.000000,0.000000,0.000000,0.000000,0.000000,0.000000,0.000000,0.000000,0.000000,0.000000,-32.000000,0.000000,0.000000,0.000000,0.000000,0.000000,1.000000,3000.000000
-0.000000,0.027000,0.000000,0.000000,-0.000015,-0.000015,0.000000,0.000000,0.000000,0.000000,0.000000,0.000000,0.000000,0.000000,0.000000,1.000000,1.000000,1.000000,1.000000,1.000000,1.000000,3.000000,0.000000,0.000000,0.000000,0.000000,0.000000,0.000000,0.000000,1.000000,1.000000,1.000000,1.000000,1.000000,1.000000,0,0,0,0,0,0,0,0,0,0,0,0,0,50.1451720000,14.3707760000,2500.000000,0.000000,0.424000,240.000000,0.000000,0.000000,0.000000,0.000000,0.000000,0.000000,0.000000,0.000000,0.000000,0.000000,0.000000,0.000000,0.000000,0.000000,0.000000,0.000000,0.000000,-32.000000,0.000000,0.000000,0.000000,0.000000,0.000000,1.000000,3000.000000
-0.000000,0.027000,0.000000,0.000000,-0.000015,-0.000015,0.000000,0.000000,0.000000,0.000000,0.000000,0.000000,0.000000,0.000000,0.000000,1.000000,1.000000,1.000000,1.000000,1.000000,1.000000,3.000000,0.000000,0.000000,0.000000,0.000000,0.000000,0.000000,0.000000,1.000000,1.000000,1.000000,1.000000,1.000000,1.000000,0,0,0,0,0,0,0,0,0,0,0,0,0,50.1451720000,14.3707760000,2500.000000,0.000000,0.424000,240.000000,0.000000,0.000000,0.000000,0.000000,0.000000,0.000000,0.000000,0.000000,0.000000,0.000000,0.000000,0.000000,0.000000,0.000000,0.000000,0.000000,0.000000,-32.000000,0.000000,0.000000,0.000000,0.000000,0.000000,1.000000,3000.000000
-0.000000,0.027000,0.000000,0.000000,-0.000015,-0.000015,0.000000,0.000000,0.000000,0.000000,0.000000,0.000000,0.000000,0.000000,0.000000,1.000000,1.000000,1.000000,1.000000,1.000000,1.000000,3.000000,0.000000,0.000000,0.000000,0.000000,0.000000,0.000000,0.000000,1.000000,1.000000,1.000000,1.000000,1.000000,1.000000,0,0,0,0,0,0,0,0,0,0,0,0,0,50.1451720000,14.3707760000,2500.000000,0.000000,0.424000,240.000000,0.000000,0.000000,0.000000,0.000000,0.000000,0.000000,0.000000,0.000000,0.000000,0.000000,0.000000,0.000000,0.000000,0.000000,0.000000,0.000000,0.000000,-32.000000,0.000000,0.000000,0.000000,0.000000,0.000000,1.000000,3000.000000
0.010379,0.027000,0.000000,0.119452,0.007055,-0.000015,0.000000,0.000000,0.000000,0.743262,0.000000,0.000000,0.000000,0.000000,0.000000,1.000000,1.000000,1.000000,1.000000,1.000000,1.000000,3.000000,0.000000,0.000000,0.000000,0.000000,0.000000,0.000000,0.000000,1.000000,1.000000,1.000000,1.000000,1.000000,1.000000,0,0,0,0,0,0,0,0,0,0,0,0,0,50.1451722711,14.3707758035,2500.000732,0.183678,1.929357,240.000000,-0.000527,89.250534,0.007400,0.141246,-1.156909,-135.377487,-78.177086,156.279205,-0.001438,4.106937,1.156909,0.997861,0.000000,0.000000,0.000000,1.030543,-0.028416,-32.176434,0.119430,0.000000,0.037372,0.037372,0.007038,1.000000,2052.093750
0.010379,0.027000,0.000000,0.119452,0.007055,-0.000015,0.000000,0.000000,0.000000,0.743262,0.000000,0.000000,0.000000,0.000000,0.000000,1.000000,1.000000,1.000000,1.000000,1.000000,1.000000,3.000000,0.000000,0.000000,0.000000,0.000000,0.000000,0.000000,0.000000,1.000000,1.000000,1.000000,1.000000,1.000000,1.000000,0,0,0,0,0,0,0,0,0,0,0,0,0,50.1449554408,14.3702046762,2502.660645,-3.302543,3.217209,245.485809,-1.417880,93.523773,0.030274,0.148058,-4.692608,-132.804916,-79.845428,153.983734,-17.743544,2.938111,4.692608,1.097248,0.000000,0.000000,0.000000,0.350867,1.200104,-35.363552,0.119430,0.000000,0.037372,0.037372,0.007038,1.000000,0.000000
0.010379,0.027000,0.000000,0.119452,0.007055,-0.000015,0.000000,0.000000,0.000000,0.743262,0.000000,0.000000,0.000000,0.000000,0.000000,1.000000,1.000000,1.000000,1.000000,1.000000,1.000000,3.000000,0.000000,0.000000,0.000000,0.000000,0.000000,0.000000,0.000000,1.000000,1.000000,1.000000,1.000000,1.000000,1.000000,0,0,0,0,0,0,0,0,0,0,0,0,0,50.1448807426,14.3700116798,2504.352539,-1.886120,3.661367,246.961121,-2.959807,93.034508,0.037340,0.147416,-5.764919,-132.189178,-79.623283,152.862976,-21.659660,3.293897,5.764919,1.098371,0.000000,0.000000,0.000000,0.126035,1.876161,-35.406628,0.119430,0.000000,0.037372,0.037372,0.007038,1.000000,2074.491455
0.010379,0.027000,0.000000,0.119452,0.007055,-0.000015,0.000000,0.000000,0.000000,0.743262,0.000000,0.000000,0.000000,0.000000,0.000000,1.000000,1.000000,1.000000,1.000000,1.000000,1.000000,3.000000,0.000000,0.000000,0.000000,0.000000,0.000000,0.000000,0.000000,1.000000,1.000000,1.000000,1.000000,1.000000,1.000000,0,0,0,0,0,0,0,0,0,0,0,0,0,50.1446655472,14.3694509888,2511.190674,2.393517,4.322963,244.006134,0.367872,91.874245,0.053120,0.145373,-8.088145,-130.927246,-77.446106,151.803757,-12.078427,3.871952,8.088145,1.040314,0.000000,0.000000,0.000000,0.724480,-0.536417,-33.569027,0.119430,0.000000,0.037372,0.037372,0.007038,1.000000,2069.951416
0.010379,0.027000,0.000000,0.119452,0.007055,-0.000015,0.000000,0.000000,0.000000,0.743262,0.000000,0.000000,0.000000,0.000000,0.000000,1.000000,1.000000,1.000000,1.000000,1.000000,1.000000,3.000000,0.000000,0.000000,0.000000,0.000000,0.000000,0.000000,0.000000,1.000000,1.000000,1.000000,1.000000,1.000000,1.000000,0,0,0,0,0,0,0,0,0,0,0,0,0,50.1446461059,14.3693998378,2511.913818,2.342414,4.384252,243.582626,0.793228,91.762962,0.053933,0.145210,-8.202868,-130.809250,-77.311043,151.729568,-10.891616,3.854438,8.202868,1.037914,0.000000,0.000000,0.000000,0.627074,-0.752153,-33.493824,0.119430,0.000000,0.037372,0.037372,0.007038,1.000000,2069.447266
0.010379,0.027000,0.000000,0.119452,0.007055,-0.000015,0.000000,0.000000,0.000000,0.743262,0.000000,0.000000,0.000000,0.000000,0.000000,1.000000,1.000000,1.000000,1.000000,1.000000,1.000000,3.000000,0.000000,0.000000,0.000000,0.000000,0.000000,0.000000,0.000000,1.000000,1.000000,1.000000,1.000000,1.000000,1.000000,0,0,0,0,0,0,0,0,0,0,0,0,0,50.1446425747,14.3693905428,2512.046631,2.324423,4.395834,243.509964,0.865098,91.741447,0.054078,0.145179,-8.223255,-130.785599,-77.288338,151.713074,-10.690676,3.851831,8.223255,1.037701,0.000000,0.000000,0.000000,0.611960,-0.787354,-33.486935,0.119430,0.000000,0.037372,0.037372,0.007038,1.000000,2069.353516
0.010379,0.027000,0.000000,0.119452,0.007055,-0.000015,0.000000,0.000000,0.000000,0.743262,0.000000,0.000000,0.000000,0.000000,0.000000,1.000000,1.000000,1.000000,1.000000,1.000000,1.000000,3.000000,0.000000,0.000000,0.000000,0.000000,0.000000,0.000000,0.000000,1.000000,1.000000,1.000000,1.000000,1.000000,1.000000,0,0,0,0,0,0,0,0,0,0,0,0,0,50.1446355152,14.3693719581,2512.312988,2.280832,4.419412,243.369308,1.003179,91.697212,0.054367,0.145115,-8.263867,-130.736374,-77.244637,151.677444,-10.304108,3.847252,8.263867,1.037495,0.000000,0.000000,0.000000,0.583496,-0.855479,-33.480076,0.119430,0.000000,0.037372,0.037372,0.007038,1.000000,2069.163330
0.010379,0.027000,0.000000,0.119452,0.007055,-0.000015,0.000000,0.000000,0.000000,0.743262,0.000000,0.000000,0.000000,0.000000,0.000000,1.000000,1.000000,1.000000,1.000000,1.000000,1.000000,3.000000,0.000000,0.000000,0.000000,0.000000,0.000000,0.000000,0.000000,1.000000,1.000000,1.000000,1.000000,1.000000,1.000000,0,0,0,0,0,0,0,0,0,0,0,0,0,50.1446319870,14.3693626684,2512.446533,2.255352,4.431394,243.301422,1.069257,91.674652,0.054512,0.145083,-8.284163,-130.710800,-77.223640,151.658340,-10.118831,3.845252,8.284163,1.037462,0.000000,0.000000,0.000000,0.571375,-0.885227,-33.478676,0.119430,0.000000,0.037372,0.037372,0.007038,1.000000,2069.066650
0.010379,0.027000,0.000000,0.119452,0.007055,-0.000015,0.000000,0.000000,0.000000,0.743262,0.000000,0.000000,0.000000,0.000000,0.000000,1.000000,1.000000,1.000000,1.000000,1.000000,1.000000,3.000000,0.000000,0.000000,0.000000,0.000000,0.000000,0.000000,0.000000,1.000000,1.000000,1.000000,1.000000,1.000000,1.000000,0,0,0,0,0,0,0,0,0,0,0,0,0,50.1446249333,14.3693440946,2512.715088,2.197351,4.455700,243.170898,1.195192,91.628822,0.054803,0.145018,-8.324880,-130.657761,-77.183350,151.617645,-9.765062,3.841738,8.324880,1.037618,0.000000,0.000000,0.000000,0.548175,-0.943758,-33.482925,0.119430,0.000000,0.037372,0.037372,0.007038,1.000000,2068.870117
0.010379,0.027000,0.000000,0.119452,0.007055,-0.000015,0.000000,0.000000,0.000000,0.743262,0.000000,0.000000,0.000000,0.000000,0.000000,1.000000,1.000000,1.000000,1.000000,1.000000,1.000000,3.000000,0.000000,0.000000,0.000000,0.000000,0.000000,0.000000,0.000000,1.000000,1.000000,1.000000,1.000000,1.000000,1.000000,0,0,0,0,0,0,0,0,0,0,0,0,0,50.1446178832,14.3693255286,2512.984863,2.130408,4.480383,243.047699,1.312433,91.582199,0.055098,0.144951,-8.365997,-130.602203,-77.145378,151.573700,-9.434725,3.838632,8.365997,1.037985,0.000000,0.000000,0.000000,0.527924,-0.996490,-33.493748,0.119430,0.000000,0.037372,0.037372,0.007038,1.000000,2068.669678
0.010379,0.027000,0.000000,0.119452,0.007055,-0.000015,0.000000,0.000000,0.000000,0.743262,0.000000,0.000000,0.000000,0.000000,0.000000,1.000000,1.000000,1.000000,1.000000,1.000000,1.000000,3.000000,0.000000,0.000000,0.000000,0.000000,0.000000,0.000000,0.000000,1.000000,1.000000,1.000000,1.000000,1.000000,1.000000,0,0,0,0,0,0,0,0,0,0,0,0,0,50.1446143594,14.3693162487,2513.120117,2.093751,4.492833,242.988983,1.367669,91.558594,0.055247,0.144918,-8.386760,-130.573502,-77.127251,151.550552,-9.278659,3.837157,8.386760,1.038238,0.000000,0.000000,0.000000,0.518883,-1.020661,-33.501308,0.119430,0.000000,0.037372,0.037372,0.007038,1.000000,2068.568115
0.010379,0.027000,0.000000,0.119452,0.007055,-0.000015,0.000000,0.000000,0.000000,0.743262,0.000000,0.000000,0.000000,0.000000,0.000000,1.000000,1.000000,1.000000,1.000000,1.000000,1.000000,3.000000,0.000000,0.000000,0.000000,0.000000,0.000000,0.000000,0.000000,1.000000,1.000000,1.000000,1.000000,1.000000,1.000000,0,0,0,0,0,0,0,0,0,0,0,0,0,50.1446108364,14.3693069708,2513.256104,2.055066,4.505336,242.932251,1.420590,91.534821,0.055397,0.144884,-8.407687,-130.544189,-77.109695,151.526672,-9.128818,3.835687,8.407687,1.038530,0.000000,0.000000,0.000000,0.510541,-1.043341,-33.510113,0.119430,0.000000,0.037372,0.037372,0.007038,1.000000,2068.465332
0.010379,0.027000,0.000000,0.119452,0.007055,-0.000015,0.000000,0.000000,0.000000,0.743262,0.000000,0.000000,0.000000,0.000000,0.000000,1.000000,1.000000,1.000000,1.000000,1.000000,1.000000,3.000000,0.000000,0.000000,0.000000,0.000000,0.000000,0.000000,0.000000,1.000000,1.000000,1.000000,1.000000,1.000000,1.000000,0,0,0,0,0,0,0,0,0,0,0,0,0,50.1446073142,14.3692976950,2513.392090,2.014427,4.517878,242.877563,1.471152,91.510902,0.055548,0.144850,-8.428796,-130.514282,-77.092712,151.502060,-8.985308,3.834183,8.428796,1.038857,0.000000,0.000000,0.000000,0.502883,-1.064513,-33.519997,0.119430,0.000000,0.037372,0.037372,0.007038,1.000000,2068.361572
0.010379,0.027000,0.000000,0.119452,0.007055,-0.000015,0.000000,0.000000,0.000000,0.743262,0.000000,0.000000,0.000000,0.000000,0.000000,1.000000,1.000000,1.000000,1.000000,1.000000,1.000000,3.000000,0.000000,0.000000,0.000000,0.000000,0.000000,0.000000,0.000000,1.000000,1.000000,1.000000,1.000000,1.000000,1.000000,0,0,0,0,0,0,0,0,0,0,0,0,0,50.1446037928,14.3692884214,2513.528564,1.971909,4.530441,242.824921,1.519319,91.486855,0.055701,0.144816,-8.450101,-130.483795,-77.076294,151.476730,-8.848225,3.832605,8.450101,1.039214,0.000000,0.000000,0.000000,0.495894,-1.084161,-33.530807,0.119430,0.000000,0.037372,0.037372,0.007038,1.000000,2068.256592
0.010379,0.027000,0.000000,0.119452,0.007055,-0.000015,0.000000,0.000000,0.000000,0.743262,0.000000,0.000000,0.000000,0.000000,0.000000,1.000000,1.000000,1.000000,1.000000,1.000000,1.000000,3.000000,0.000000,0.000000,0.000000,0.000000,0.000000,0.000000,0.000000,1.000000,1.000000,1.000000,1.000000,1.000000,1.000000,0,0,0,0,0,0,0,0,0,0,0,0,0,50.1445967521,14.3692698809,2513.802734,1.881542,4.555572,242.726028,1.608333,91.438454,0.056011,0.144746,-8.493346,-130.421097,-77.045151,151.424042,-8.593677,3.829078,8.493346,1.039996,0.000000,0.000000,0.000000,0.483861,-1.118841,-33.554585,0.119430,0.000000,0.037372,0.037372,0.007038,1.000000,2068.043945
0.010379,0.027000,0.000000,0.119452,0.007055,-0.000015,0.000000,0.000000,0.000000,0.743262,0.000000,0.000000,0.000000,0.000000,0.000000,1.000000,1.000000,1.000000,1.000000,1.000000,1.000000,3.000000,0.000000,0.000000,0.000000,0.000000,0.000000,0.000000,0.000000,1.000000,1.000000,1.000000,1.000000,1.000000,1.000000,0,0,0,0,0,0,0,0,0,0,0,0,0,50.1445932328,14.3692606141,2513.940186,1.833850,4.568108,242.679825,1.649120,91.414124,0.056169,0.144711,-8.515303,-130.388916,-77.030418,151.396729,-8.476357,3.827053,8.515303,1.040412,0.000000,0.000000,0.000000,0.478785,-1.133856,-33.567245,0.119430,0.000000,0.037372,0.037372,0.007038,1.000000,2067.936279
0.010379,0.027000,0.000000,0.119452,0.007055,-0.000015,0.000000,0.000000,0.000000,0.743262,0.000000,0.000000,0.000000,0.000000,0.000000,1.000000,1.000000,1.000000,1.000000,1.000000,1.000000,3.000000,0.000000,0.000000,0.000000,0.000000,0.000000,0.000000,0.000000,1.000000,1.000000,1.000000,1.000000,1.000000,1.000000,0,0,0,0,0,0,0,0,0,0,0,0,0,50.1445897142,14.3692513495,2514.078125,1.784591,4.580603,242.635818,1.687395,91.389732,0.056328,0.144676,-8.537487,-130.356186,-77.016228,151.368774,-8.365756,3.824806,8.537487,1.040838,0.000000,0.000000,0.000000,0.474317,-1.147312,-33.580215,0.119430,0.000000,0.037372,0.037372,0.007038,1.000000,2067.827393
0.010379,0.027000,0.000000,0.119452,0.007055,-0.000015,0.000000,0.000000,0.000000,0.743262,0.000000,0.000000,0.000000,0.000000,0.000000,1.000000,1.000000,1.000000,1.000000,1.000000,1.000000,3.000000,0.000000,0.000000,0.000000,0.000000,0.000000,0.000000,0.000000,1.000000,1.000000,1.000000,1.000000,1.000000,1.000000,0,0,0,0,0,0,0,0,0,0,0,0,0,50.1445861962,14.3692420874,2514.216553,1.733847,4.593044,242.594040,1.723137,91.365288,0.056489,0.144640,-8.559902,-130.322922,-77.002594,151.340225,-8.261924,3.822303,8.559902,1.041269,0.000000,0.000000,0.000000,0.470442,-1.159208,-33.593349,0.119430,0.000000,0.037372,0.037372,0.007038,1.000000,2067.717773
0.010379,0.027000,0.000000,0.119452,0.007055,-0.000015,0.000000,0.000000,0.000000,0.743262,0.000000,0.000000,0.000000,0.000000,0.000000,1.000000,1.000000,1.000000,1.000000,1.000000,1.000000,3.000000,0.000000,0.000000,0.000000,0.000000,0.000000,0.000000,0.000000,1.000000,1.000000,1.000000,1.000000,1.000000,1.000000,0,0,0,0,0,0,0,0,0,0,0,0,0,50.1445826789,14.3692328276,2514.355225,1.681698,4.605416,242.554520,1.756328,91.340813,0.056651,0.144605,-8.582546,-130.289139,-76.989502,151.311096,-8.164899,3.819511,8.582546,1.041701,0.000000,0.000000,0.000000,0.467144,-1.169543,-33.606510,0.119430,0.000000,0.037372,0.037372,0.007038,1.000000,2067.606934
0.010379,0.027000,0.000000,0.119452,0.007055,-0.000015,0.000000,0.000000,0.000000,0.743262,0.000000,0.000000,0.000000,0.000000,0.000000,1.000000,1.000000,1.000000,1.000000,1.000000,1.000000,3.000000,0.000000,0.000000,0.000000,0.000000,0.000000,0.000000,0.000000,1.000000,1.000000,1.000000,1.000000,1.000000,1.000000,0,0,0,0,0,0,0,0,0,0,0,0,0,50.1445756458,14.3692143154,2514.633789,1.573522,4.629899,242.482285,1.815005,91.291817,0.056981,0.144533,-8.628509,-130.220078,-76.964905,151.251175,-7.991391,3.812944,8.628509,1.042550,0.000000,0.000000,0.000000,0.462225,-1.185538,-33.632366,0.119430,0.000000,0.037372,0.037372,0.007038,1.000000,2067.383057
0.010379,0.027000,0.000000,0.119452,0.007055,-0.000015,0.000000,0.000000,0.000000,0.743262,0.000000,0.000000,0.000000,0.000000,0.000000,1.000000,1.000000,1.000000,1.000000,1.000000,1.000000,3.000000,0.000000,0.000000,0.000000,0.000000,0.000000,0.000000,0.000000,1.000000,1.000000,1.000000,1.000000,1.000000,1.000000,0,0,0,0,0,0,0,0,0,0,0,0,0,50.1445721301,14.3692050631,2514.773682,1.517660,4.641984,242.449615,1.840474,91.267326,0.057148,0.144497,-8.651814,-130.184830,-76.953400,151.220413,-7.914944,3.809116,8.651814,1.042959,0.000000,0.000000,0.000000,0.460577,-1.191210,-33.644814,0.119430,0.000000,0.037372,0.037372,0.007038,1.000000,2067.269775
0.010379,0.027000,0.000000,0.119452,0.007055,-0.000015,0.000000,0.000000,0.000000,0.743262,0.000000,0.000000,0.000000,0.000000,0.000000,1.000000,1.000000,1.000000,1.000000,1.000000,1.000000,3.000000,0.000000,0.000000,0.000000,0.000000,0.000000,0.000000,0.000000,1.000000,1.000000,1.000000,1.000000,1.000000,1.000000,0,0,0,0,0,0,0,0,0,0,0,0,0,50.1445686150,14.3691958133,2514.914063,1.460729,4.653952,242.419266,1.863357,91.242851,0.057317,0.144461,-8.675325,-130.149124,-76.942398,151.189163,-7.845376,3.804895,8.675325,1.043354,0.000000,0.000000,0.000000,0.459452,-1.195341,-33.656788,0.119430,0.000000,0.037372,0.037372,0.007038,1.000000,2067.155518
0.010379,0.027000,0.000000,0.119452,0.007055,-0.000015,0.000000,0.000000,0.000000,0.743262,0.000000,0.000000,0.000000,0.000000,0.000000,1.000000,1.000000,1.000000,1.000000,1.000000,1.000000,3.000000,0.000000,0.000000,0.000000,0.000000,0.000000,0.000000,0.000000,1.000000,1.000000,1.000000,1.000000,1.000000,1.000000,0,0,0,0,0,0,0,0,0,0,0,0,0,50.1445651003,14.3691865661,2515.054688,1.402814,4.665791,242.391220,1.883653,91.218407,0.057487,0.144424,-8.699030,-130.112976,-76.931908,151.157425,-7.782684,3.800261,8.699030,1.043730,0.000000,0.000000,0.000000,0.458840,-1.197944,-33.668179,0.119430,0.000000,0.037372,0.037372,0.007038,1.000000,2067.040527
0.010379,0.027000,0.000000,0.119452,0.007055,-0.000015,0.000000,0.000000,0.000000,0.743262,0.000000,0.000000,0.000000,0.000000,0.000000,1.000000,1.000000,1.000000,1.000000,1.000000,1.000000,3.000000,0.000000,0.000000,0.000000,0.000000,0.000000,0.000000,0.000000,1.000000,1.000000,1.000000,1.000000,1.000000,1.000000,0,0,0,0,0,0,0,0,0,0,0,0,0,50.1445615860,14.3691773214,2515.195557,1.343998,4.677491,242.365509,1.901364,91.194008,0.057658,0.144388,-8.722915,-130.076401,-76.921921,151.125214,-7.726854,3.795198,8.722915,1.044084,0.000000,0.000000,0.000000,0.458727,-1.199030,-33.678894,0.119430,0.000000,0.037372,0.037372,0.007038,1.000000,2066.924805
0.010379,0.027000,0.000000,0.119452,0.007055,-0.000015,0.000000,0.000000,0.000000,0.743262,0.000000,0.000000,0.000000,0.000000,0.000000,1.000000,1.000000,1.000000,1.000000,1.000000,1.000000,3.000000,0.000000,0.000000,0.000000,0.000000,0.000000,0.000000,0.000000,1.000000,1.000000,1.000000,1.000000,1.000000,1.000000,0,0,0,0,0,0,0,0,0,0,0,0,0,50.1445545589,14.3691588401,2515.479004,1.224009,4.700444,242.321045,1.929062,91.145363,0.058005,0.144314,-8.771173,-130.002014,-76.903389,151.059494,-7.635688,3.783731,8.771173,1.044718,0.000000,0.000000,0.000000,0.459956,-1.196715,-33.697929,0.119430,0.000000,0.037372,0.037372,0.007038,1.000000,2066.691162
0.010379,0.027000,0.000000,0.119452,0.007055,-0.000015,0.000000,0.000000,0.000000,0.743262,0.000000,0.000000,0.000000,0.000000,0.000000,1.000000,1.000000,1.000000,1.000000,1.000000,1.000000,3.000000,0.000000,0.000000,0.000000,0.000000,0.000000,0.000000,0.000000,1.000000,1.000000,1.000000,1.000000,1.000000,1.000000,0,0,0,0,0,0,0,0,0,0,0,0,0,50.1445510460,14.3691496035,2515.621338,1.163005,4.711684,242.302292,1.939069,91.121147,0.058179,0.144277,-8.795512,-129.964264,-76.894836,151.026001,-7.600283,3.777308,8.795512,1.044992,0.000000,0.000000,0.000000,0.461277,-1.193349,-33.706097,0.119430,0.000000,0.037372,0.037372,0.007038,1.000000,2066.573242
0.010379,0.027000,0.000000,0.119452,0.007055,-0.000015,0.000000,0.000000,0.000000,0.743262,0.000000,0.000000,0.000000,0.000000,0.000000,1.000000,1.000000,1.000000,1.000000,1.000000,1.000000,3.000000,0.000000,0.000000,0.000000,0.000000,0.000000,0.000000,0.000000,1.000000,1.000000,1.000000,1.000000,1.000000,1.000000,0,0,0,0,0,0,0,0,0,0,0,0,0,50.1445475334,14.3691403695,2515.763916,1.101443,4.722758,242.285858,1.946534,91.097000,0.058355,0.144240,-8.819971,-129.926132,-76.886742,150.992111,-7.571606,3.770419,8.819971,1.045235,0.000000,0.000000,0.000000,0.463057,-1.188540,-33.713280,0.119430,0.000000,0.037372,0.037372,0.007038,1.000000,2066.454590
0.010379,0.027000,0.000000,0.119452,0.007055,-0.000015,0.000000,0.000000,0.000000,0.743262,0.000000,0.000000,0.000000,0.000000,0.000000,1.000000,1.000000,1.000000,1.000000,1.000000,1.000000,3.000000,0.000000,0.000000,0.000000,0.000000,0.000000,0.000000,0.000000,1.000000,1.000000,1.000000,1.000000,1.000000,1.000000,0,0,0,0,0,0,0,0,0,0,0,0,0,50.1445440212,14.3691311383,2515.906982,1.039407,4.733663,242.271729,1.951475,91.072937,0.058532,0.144203,-8.844528,-129.887680,-76.879097,150.957855,-7.549603,3.763061,8.844528,1.045446,0.000000,0.000000,0.000000,0.465287,-1.182308,-33.719414,0.119430,0.000000,0.037372,0.037372,0.007038,1.000000,2066.335449
0.010379,0.027000,0.000000,0.119452,0.007055,-0.000015,0.000000,0.000000,0.000000,0.743262,0.000000,0.000000,0.000000,0.000000,0.000000,1.000000,1.000000,1.000000,1.000000,1.000000,1.000000,3.000000,0.000000,0.000000,0.000000,0.000000,0.000000,0.000000,0.000000,1.000000,1.000000,1.000000,1.000000,1.000000,1.000000,0,0,0,0,0,0,0,0,0,0,0,0,0,50.1445405093,14.3691219099,2516.050537,0.976981,4.744395,242.259888,1.953914,91.048973,0.058709,0.144166,-8.869166,-129.848892,-76.871887,150.923218,-7.534210,3.755234,8.869166,1.045622,0.000000,0.000000,0.000000,0.467957,-1.174678,-33.724457,0.119430,0.000000,0.037372,0.037372,0.007038,1.000000,2066.215576
0.010379,0.027000,0.000000,0.119452,0.007055,-0.000015,0.000000,0.000000,0.000000,0.743262,0.000000,0.000000,0.000000,0.000000,0.000000,1.000000,1.000000,1.000000,1.000000,1.000000,1.000000,3.000000,0.000000,0.000000,0.000000,0.000000,0.000000,0.000000,0.000000,1.000000,1.000000,1.000000,1.000000,1.000000,1.000000,0,0,0,0,0,0,0,0,0,0,0,0,0,50.1445334865,14.3691034615,2516.338623,0.851296,4.765329,242.243027,1.951383,91.001328,0.059064,0.144091,-8.918605,-129.770447,-76.858734,150.852921,-7.522975,3.738194,8.918605,1.045865,0.000000,0.000000,0.000000,0.474588,-1.155331,-33.731113,0.119430,0.000000,0.037372,0.037372,0.007038,1.000000,2065.974121
0.010379,0.027000,0.000000,0.119452,0.007055,-0.000015,0.000000,0.000000,0.000000,0.743262,0.000000,0.000000,0.000000,0.000000,0.000000,1.000000,1.000000,1.000000,1.000000,1.000000,1.000000,3.000000,0.000000,0.000000,0.000000,0.000000,0.000000,0.000000,0.000000,1.000000,1.000000,1.000000,1.000000,1.000000,1.000000,0,0,0,0,0,0,0,0,0,0,0,0,0,50.1445299756,14.3690942414,2516.483398,0.788204,4.775530,242.237961,1.946469,90.977661,0.059242,0.144054,-8.943365,-129.730804,-76.852768,150.817276,-7.526973,3.728994,8.943365,1.045931,0.000000,0.000000,0.000000,0.478534,-1.143670,-33.732666,0.119430,0.000000,0.037372,0.037372,0.007038,1.000000,2065.852783
0.010379,0.027000,0.000000,0.119452,0.007055,-0.000015,0.000000,0.000000,0.000000,0.743262,0.000000,0.000000,0.000000,0.000000,0.000000,1.000000,1.000000,1.000000,1.000000,1.000000,1.000000,3.000000,0.000000,0.000000,0.000000,0.000000,0.000000,0.000000,0.000000,1.000000,1.000000,1.000000,1.000000,1.000000,1.000000,0,0,0,0,0,0,0,0,0,0,0,0,0,50.1445264649,14.3690850243,2516.628662,0.725054,4.785553,242.235123,1.939165,90.954102,0.059420,0.144016,-8.968124,-129.690918,-76.847183,150.781326,-7.537261,3.719355,8.968124,1.045959,0.000000,0.000000,0.000000,0.482892,-1.130726,-33.733013,0.119430,0.000000,0.037372,0.037372,0.007038,1.000000,2065.730957
0.010379,0.027000,0.000000,0.119452,0.007055,-0.000015,0.000000,0.000000,0.000000,0.743262,0.000000,0.000000,0.000000,0.000000,0.000000,1.000000,1.000000,1.000000,1.000000,1.000000,1.000000,3.000000,0.000000,0.000000,0.000000,0.000000,0.000000,0.000000,0.000000,1.000000,1.000000,1.000000,1.000000,1.000000,1.000000,0,0,0,0,0,0,0,0,0,0,0,0,0,50.1445229544,14.3690758100,2516.774170,0.661928,4.795399,242.234467,1.929506,90.930656,0.059599,0.143979,-8.992863,-129.650818,-76.841988,150.745071,-7.553744,3.709289,8.992863,1.045949,0.000000,0.000000,0.000000,0.487654,-1.116529,-33.732136,0.119430,0.000000,0.037372,0.037372,0.007038,1.000000,2065.608643
0.010379,0.027000,0.000000,0.119452,0.007055,-0.000015,0.000000,0.000000,0.000000,0.743262,0.000000,0.000000,0.000000,0.000000,0.000000,1.000000,1.000000,1.000000,1.000000,1.000000,1.000000,3.000000,0.000000,0.000000,0.000000,0.000000,0.000000,0.000000,0.000000,1.000000,1.000000,1.000000,1.000000,1.000000,1.000000,0,0,0,0,0,0,0,0,0,0,0,0,0,50.1445194442,14.3690665985,2516.920166,0.598906,4.805070,242.235977,1.917530,90.907333,0.059777,0.143941,-9.017559,-129.610504,-76.837143,150.708542,-7.576316,3.698811,9.017559,1.045900,0.000000,0.000000,0.000000,0.492814,-1.101114,-33.730038,0.119430,0.000000,0.037372,0.037372,0.007038,1.000000,2065.485840
0.010379,0.027000,0.000000,0.119452,0.007055,-0.000015,0.000000,0.000000,0.000000,0.743262,0.000000,0.000000,0.000000,0.000000,0.000000,1.000000,1.000000,1.000000,1.000000,1.000000,1.000000,3.000000,0.000000,0.000000,0.000000,0.000000,0.000000,0.000000,0.000000,1.000000,1.000000,1.000000,1.000000,1.000000,1.000000,0,0,0,0,0,0,0,0,0,0,0,0,0,50.1445124243,14.3690481844,2517.213379,0.473490,4.823895,242.245377,1.886786,90.861015,0.060131,0.143866,-9.066744,-129.529343,-76.828491,150.634644,-7.639282,3.676692,9.066744,1.045688,0.000000,0.000000,0.000000,0.504306,-1.066768,-33.722172,0.119430,0.000000,0.037372,0.037372,0.007038,1.000000,2065.239258
0.010379,0.027000,0.000000,0.119452,0.007055,-0.000015,0.000000,0.000000,0.000000,0.743262,0.000000,0.000000,0.000000,0.000000,0.000000,1.000000,1.000000,1.000000,1.000000,1.000000,1.000000,3.000000,0.000000,0.000000,0.000000,0.000000,0.000000,0.000000,0.000000,1.000000,1.000000,1.000000,1.000000,1.000000,1.000000,0,0,0,0,0,0,0,0,0,0,0,0,0,50.1445089147,14.3690389816,2517.360596,0.411250,4.833054,242.253204,1.868106,90.838036,0.060308,0.143829,-9.091191,-129.488525,-76.824654,150.597305,-7.679437,3.665089,9.091191,1.045525,0.000000,0.000000,0.000000,0.510626,-1.047909,-33.716431,0.119430,0.000000,0.037372,0.037372,0.007038,1.000000,2065.115479
0.010379,0.027000,0.000000,0.119452,0.007055,-0.000015,0.000000,0.000000,0.000000,0.743262,0.000000,0.000000,0.000000,0.000000,0.000000,1.000000,1.000000,1.000000,1.000000,1.000000,1.000000,3.000000,0.000000,0.000000,0.000000,0.000000,0.000000,0.000000,0.000000,1.000000,1.000000,1.000000,1.000000,1.000000,1.000000,0,0,0,0,0,0,0,0,0,0,0,0,0,50.1445054052,14.3690297818,2517.508057,0.349423,4.842051,242.263062,1.847282,90.815178,0.060484,0.143792,-9.115518,-129.447586,-76.821121,150.559723,-7.725204,3.653153,9.115518,1.045325,0.000000,0.000000,0.000000,0.517322,-1.027978,-33.709499,0.119430,0.000000,0.037372,0.037372,0.007038,1.000000,2064.991211
0.010379,0.027000,0.000000,0.119452,0.007055,-0.000015,0.000000,0.000000,0.000000,0.743262,0.000000,0.000000,0.000000,0.000000,0.000000,1.000000,1.000000,1.000000,1.000000,1.000000,1.000000,3.000000,0.000000,0.000000,0.000000,0.000000,0.000000,0.000000,0.000000,1.000000,1.000000,1.000000,1.000000,1.000000,1.000000,0,0,0,0,0,0,0,0,0,0,0,0,0,50.1445018959,14.3690205849,2517.656006,0.288084,4.850888,242.274918,1.824362,90.792435,0.060659,0.143754,-9.139701,-129.406525,-76.817879,150.521896,-7.776451,3.640907,9.139701,1.045088,0.000000,0.000000,0.000000,0.524387,-1.007012,-33.701401,0.119430,0.000000,0.037372,0.037372,0.007038,1.000000,2064.866943
0.010379,0.027000,0.000000,0.119452,0.007055,-0.000015,0.000000,0.000000,0.000000,0.743262,0.000000,0.000000,0.000000,0.000000,0.000000,1.000000,1.000000,1.000000,1.000000,1.000000,1.000000,3.000000,0.000000,0.000000,0.000000,0.000000,0.000000,0.000000,0.000000,1.000000,1.000000,1.000000,1.000000,1.000000,1.000000,0,0,0,0,0,0,0,0,0,0,0,0,0,50.1444983868,14.3690113910,2517.804443,0.227304,4.859570,242.288712,1.799398,90.769806,0.060833,0.143717,-9.163725,-129.365387,-76.814911,150.483841,-7.833037,3.628375,9.163725,1.044816,0.000000,0.000000,0.000000,0.531818,-0.985052,-33.692169,0.119430,0.000000,0.037372,0.037372,0.007038,1.000000,2064.742432
0.010379,0.027000,0.000000,0.119452,0.007055,-0.000015,0.000000,0.000000,0.000000,0.743262,0.000000,0.000000,0.000000,0.000000,0.000000,1.000000,1.000000,1.000000,1.000000,1.000000,1.000000,3.000000,0.000000,0.000000,0.000000,0.000000,0.000000,0.000000,0.000000,1.000000,1.000000,1.000000,1.000000,1.000000,1.000000,0,0,0,0,0,0,0,0,0,0,0,0,0,50.1444913688,14.3689930119,2518.102539,0.107704,4.876489,242.322021,1.743551,90.724884,0.061177,0.143642,-9.211219,-129.282928,-76.809731,150.407089,-7.961654,3.602556,9.211219,1.044168,0.000000,0.000000,0.000000,0.547750,-0.938312,-33.670403,0.119430,0.000000,0.037372,0.037372,0.007038,1.000000,2064.492676
0.010379,0.027000,0.000000,0.119452,0.007055,-0.000015,0.000000,0.000000,0.000000,0.743262,0.000000,0.000000,0.000000,0.000000,0.000000,1.000000,1.000000,1.000000,1.000000,1.000000,1.000000,3.000000,0.000000,0.000000,0.000000,0.000000,0.000000,0.000000,0.000000,1.000000,1.000000,1.000000,1.000000,1.000000,1.000000,0,0,0,0,0,0,0,0,0,0,0,0,0,50.1444878600,14.3689838268,2518.252197,0.049021,4.884735,242.341415,1.712780,90.702591,0.061347,0.143605,-9.234655,-129.241638,-76.807495,150.368393,-8.033383,3.589321,9.234655,1.043796,0.000000,0.000000,0.000000,0.556241,-0.913615,-33.657940,0.119430,0.000000,0.037372,0.037372,0.007038,1.000000,2064.367432
0.010379,0.027000,0.000000,0.119452,0.007055,-0.000015,0.000000,0.000000,0.000000,0.743262,0.000000,0.000000,0.000000,0.000000,0.000000,1.000000,1.000000,1.000000,1.000000,1.000000,1.000000,3.000000,0.000000,0.000000,0.000000,0.000000,0.000000,0.000000,0.000000,1.000000,1.000000,1.000000,1.000000,1.000000,1.000000,0,0,0,0,0,0,0,0,0,0,0,0,0,50.1444843513,14.3689746447,2518.402100,-0.008829,4.892847,242.362595,1.680186,90.680405,0.061516,0.143568,-9.257863,-129.200348,-76.805466,150.329498,-8.109851,3.575906,9.257863,1.043391,0.000000,0.000000,0.000000,0.565074,-0.888090,-33.644474,0.119430,0.000000,0.037372,0.037372,0.007038,1.000000,2064.242188
0.010379,0.027000,0.000000,0.119452,0.007055,-0.000015,0.000000,0.000000,0.000000,0.743262,0.000000,0.000000,0.000000,0.000000,0.000000,1.000000,1.000000,1.000000,1.000000,1.000000,1.000000,3.000000,0.000000,0.000000,0.000000,0.000000,0.000000,0.000000,0.000000,1.000000,1.000000,1.000000,1.000000,1.000000,1.000000,0,0,0,0,0,0,0,0,0,0,0,0,0,50.1444808426,14.3689654654,2518.552490,-0.065782,4.900828,242.385498,1.645831,90.658325,0.061683,0.143531,-9.280828,-129.159058,-76.803635,150.290421,-8.190898,3.562339,9.280828,1.042957,0.000000,0.000000,0.000000,0.574244,-0.861781,-33.630047,0.119430,0.000000,0.037372,0.037372,0.007038,1.000000,2064.116943
0.010379,0.027000,0.000000,0.119452,0.007055,-0.000015,0.000000,0.000000,0.000000,0.743262,0.000000,0.000000,0.000000,0.000000,0.000000,1.000000,1.000000,1.000000,1.000000,1.000000,1.000000,3.000000,0.000000,0.000000,0.000000,0.000000,0.000000,0.000000,0.000000,1.000000,1.000000,1.000000,1.000000,1.000000,1.000000,0,0,0,0,0,0,0,0,0,0,0,0,0,50.1444773341,14.3689562892,2518.703125,-0.121777,4.908685,242.410065,1.609774,90.636353,0.061848,0.143494,-9.303534,-129.117783,-76.801979,150.251160,-8.276358,3.548647,9.303534,1.042495,0.000000,0.000000,0.000000,0.583743,-0.834731,-33.614704,0.119430,0.000000,0.037372,0.037372,0.007038,1.000000,2063.991455
0.010379,0.027000,0.000000,0.119452,0.007055,-0.000015,0.000000,0.000000,0.000000,0.743262,0.000000,0.000000,0.000000,0.000000,0.000000,1.000000,1.000000,1.000000,1.000000,1.000000,1.000000,3.000000,0.000000,0.000000,0.000000,0.000000,0.000000,0.000000,0.000000,1.000000,1.000000,1.000000,1.000000,1.000000,1.000000,0,0,0,0,0,0,0,0,0,0,0,0,0,50.1444703172,14.3689379454,2519.005859,-0.230652,4.924044,242.464020,1.532812,90.592690,0.062174,0.143420,-9.348117,-129.035400,-76.799141,150.172119,-8.459844,3.521003,9.348117,1.041489,0.000000,0.000000,0.000000,0.603705,-0.778584,-33.581429,0.119430,0.000000,0.037372,0.037372,0.007038,1.000000,2063.740234
0.010379,0.027000,0.000000,0.119452,0.007055,-0.000015,0.000000,0.000000,0.000000,0.743262,0.000000,0.000000,0.000000,0.000000,0.000000,1.000000,1.000000,1.000000,1.000000,1.000000,1.000000,3.000000,0.000000,0.000000,0.000000,0.000000,0.000000,0.000000,0.000000,1.000000,1.000000,1.000000,1.000000,1.000000,1.000000,0,0,0,0,0,0,0,0,0,0,0,0,0,50.1444668089,14.3689287780,2519.157715,-0.283418,4.931556,242.493286,1.492035,90.570992,0.062334,0.143383,-9.369969,-128.994324,-76.797920,150.132355,-8.557525,3.507107,9.369969,1.040949,0.000000,0.000000,0.000000,0.614154,-0.749575,-33.563591,0.119430,0.000000,0.037372,0.037372,0.007038,1.000000,2063.614746
0.010379,0.027000,0.000000,0.119452,0.007055,-0.000015,0.000000,0.000000,0.000000,0.743262,0.000000,0.000000,0.000000,0.000000,0.000000,1.000000,1.000000,1.000000,1.000000,1.000000,1.000000,3.000000,0.000000,0.000000,0.000000,0.000000,0.000000,0.000000,0.000000,1.000000,1.000000,1.000000,1.000000,1.000000,1.000000,0,0,0,0,0,0,0,0,0,0,0,0,0,50.1444633006,14.3689196135,2519.309814,-0.334998,4.938962,242.524002,1.449816,90.549393,0.062491,0.143347,-9.391514,-128.953339,-76.796814,150.092422,-8.658929,3.493199,9.391514,1.040386,0.000000,0.000000,0.000000,0.624905,-0.720003,-33.545017,0.119430,0.000000,0.037372,0.037372,0.007038,1.000000,2063.489014
0.010379,0.027000,0.000000,0.119452,0.007055,-0.000015,0.000000,0.000000,0.000000,0.743262,0.000000,0.000000,0.000000,0.000000,0.000000,1.000000,1.000000,1.000000,1.000000,1.000000,1.000000,3.000000,0.000000,0.000000,0.000000,0.000000,0.000000,0.000000,0.000000,1.000000,1.000000,1.000000,1.000000,1.000000,1.000000,0,0,0,0,0,0,0,0,0,0,0,0,0,50.1444597923,14.3689104518,2519.462402,-0.385340,4.946267,242.556122,1.406222,90.527870,0.062647,0.143310,-9.412740,-128.912476,-76.795799,150.052353,-8.763877,3.479306,9.412740,1.039801,0.000000,0.000000,0.000000,0.635950,-0.689912,-33.525749,0.119430,0.000000,0.037372,0.037372,0.007038,1.000000,2063.363525
0.010379,0.027000,0.000000,0.119452,0.007055,-0.000015,0.000000,0.000000,0.000000,0.743262,0.000000,0.000000,0.000000,0.000000,0.000000,1.000000,1.000000,1.000000,1.000000,1.000000,1.000000,3.000000,0.000000,0.000000,0.000000,0.000000,0.000000,0.000000,0.000000,1.000000,1.000000,1.000000,1.000000,1.000000,1.000000,0,0,0,0,0,0,0,0,0,0,0,0,0,50.1444562841,14.3689012931,2519.615234,-0.434394,4.953474,242.589569,1.361321,90.506424,0.062801,0.143274,-9.433639,-128.871735,-76.794868,150.012146,-8.872188,3.465454,9.433639,1.039197,0.000000,0.000000,0.000000,0.647281,-0.659346,-33.505836,0.119430,0.000000,0.037372,0.037372,0.007038,1.000000,2063.237793
0.010379,0.027000,0.000000,0.119452,0.007055,-0.000015,0.000000,0.000000,0.000000,0.743262,0.000000,0.000000,0.000000,0.000000,0.000000,1.000000,1.000000,1.000000,1.000000,1.000000,1.000000,3.000000,0.000000,0.000000,0.000000,0.000000,0.000000,0.000000,0.000000,1.000000,1.000000,1.000000,1.000000,1.000000,1.000000,0,0,0,0,0,0,0,0,0,0,0,0,0,50.1444492678,14.3688829844,2519.922119,-0.528452,4.967610,242.660233,1.267877,90.463768,0.063101,0.143202,-9.474418,-128.790710,-76.793175,149.931351,-9.098162,3.437984,9.474418,1.037934,0.000000,0.000000,0.000000,0.670765,-0.596972,-33.464264,0.119430,0.000000,0.037372,0.037372,0.007038,1.000000,2062.986816
0.010379,0.027000,0.000000,0.119452,0.007055,-0.000015,0.000000,0.000000,0.000000,0.743262,0.000000,0.000000,0.000000,0.000000,0.000000,1.000000,1.000000,1.000000,1.000000,1.000000,1.000000,3.000000,0.000000,0.000000,0.000000,0.000000,0.000000,0.000000,0.000000,1.000000,1.000000,1.000000,1.000000,1.000000,1.000000,0,0,0,0,0,0,0,0,0,0,0,0,0,50.1444457597,14.3688738344,2520.076172,-0.573368,4.974545,242.697327,1.219474,90.442543,0.063248,0.143166,-9.494284,-128.750458,-76.792381,149.890762,-9.215453,3.424415,9.494284,1.037278,0.000000,0.000000,0.000000,0.682899,-0.565252,-33.442692,0.119430,0.000000,0.037372,0.037372,0.007038,1.000000,2062.861328
0.010379,0.027000,0.000000,0.119452,0.007055,-0.000015,0.000000,0.000000,0.000000,0.743262,0.000000,0.000000,0.000000,0.000000,0.000000,1.000000,1.000000,1.000000,1.000000,1.000000,1.000000,3.000000,0.000000,0.000000,0.000000,0.000000,0.000000,0.000000,0.000000,1.000000,1.000000,1.000000,1.000000,1.000000,1.000000,0,0,0,0,0,0,0,0,0,0,0,0,0,50.1444422517,14.3688646872,2520.230469,-0.616821,4.981395,242.735519,1.170045,90.421387,0.063392,0.143130,-9.513792,-128.710403,-76.791603,149.850082,-9.335363,3.410990,9.513792,1.036609,0.000000,0.000000,0.000000,0.695282,-0.533237,-33.420658,0.119430,0.000000,0.037372,0.037372,0.007038,1.000000,2062.736084
0.010379,0.027000,0.000000,0.119452,0.007055,-0.000015,0.000000,0.000000,0.000000,0.743262,0.000000,0.000000,0.000000,0.000000,0.000000,1.000000,1.000000,1.000000,1.000000,1.000000,1.000000,3.000000,0.000000,0.000000,0.000000,0.000000,0.000000,0.000000,0.000000,1.000000,1.000000,1.000000,1.000000,1.000000,1.000000,0,0,0,0,0,0,0,0,0,0,0,0,0,50.1444387436,14.3688555428,2520.385010,-0.658772,4.988162,242.774734,1.119661,90.400284,0.063534,0.143094,-9.532936,-128.670547,-76.790817,149.809296,-9.457704,3.397733,9.532936,1.035926,0.000000,0.000000,0.000000,0.707902,-0.500970,-33.398205,0.119430,0.000000,0.037372,0.037372,0.007038,1.000000,2062.610596
0.010379,0.027000,0.000000,0.119452,0.007055,-0.000015,0.000000,0.000000,0.000000,0.743262,0.000000,0.000000,0.000000,0.000000,0.000000,1.000000,1.000000,1.000000,1.000000,1.000000,1.000000,3.000000,0.000000,0.000000,0.000000,0.000000,0.000000,0.000000,0.000000,1.000000,1.000000,1.000000,1.000000,1.000000,1.000000,0,0,0,0,0,0,0,0,0,0,0,0,0,50.1444352356,14.3688464013,2520.539795,-0.699187,4.994848,242.814911,1.068395,90.379242,0.063673,0.143059,-9.551712,-128.630920,-76.790016,149.768417,-9.582286,3.384666,9.551712,1.035231,0.000000,0.000000,0.000000,0.720749,-0.468494,-33.375374,0.119430,0.000000,0.037372,0.037372,0.007038,1.000000,2062.485596
0.010379,0.027000,0.000000,0.119452,0.007055,-0.000015,0.000000,0.000000,0.000000,0.743262,0.000000,0.000000,0.000000,0.000000,0.000000,1.000000,1.000000,1.000000,1.000000,1.000000,1.000000,3.000000,0.000000,0.000000,0.000000,0.000000,0.000000,0.000000,0.000000,1.000000,1.000000,1.000000,1.000000,1.000000,1.000000,0,0,0,0,0,0,0,0,0,0,0,0,0,50.1444282198,14.3688281268,2520.850586,-0.775273,5.007978,242.897903,0.963503,90.337326,0.063945,0.142989,-9.588141,-128.552368,-76.788284,149.686432,-9.837412,3.359187,9.588141,1.033813,0.000000,0.000000,0.000000,0.747078,-0.403094,-33.328747,0.119430,0.000000,0.037372,0.037372,0.007038,1.000000,2062.235352
0.010379,0.027000,0.000000,0.119452,0.007055,-0.000015,0.000000,0.000000,0.000000,0.743262,0.000000,0.000000,0.000000,0.000000,0.000000,1.000000,1.000000,1.000000,1.000000,1.000000,1.000000,3.000000,0.000000,0.000000,0.000000,0.000000,0.000000,0.000000,0.000000,1.000000,1.000000,1.000000,1.000000,1.000000,1.000000,0,0,0,0,0,0,0,0,0,0,0,0,0,50.1444247119,14.3688189936,2521.006348,-0.810885,5.014425,242.940582,0.910023,90.316437,0.064076,0.142954,-9.605788,-128.513489,-76.787331,149.645340,-9.967576,3.346815,9.605788,1.033091,0.000000,0.000000,0.000000,0.760535,-0.370253,-33.305023,0.119430,0.000000,0.037372,0.037372,0.007038,1.000000,2062.110596
0.010379,0.027000,0.000000,0.119452,0.007055,-0.000015,0.000000,0.000000,0.000000,0.743262,0.000000,0.000000,0.000000,0.000000,0.000000,1.000000,1.000000,1.000000,1.000000,1.000000,1.000000,3.000000,0.000000,0.000000,0.000000,0.000000,0.000000,0.000000,0.000000,1.000000,1.000000,1.000000,1.000000,1.000000,1.000000,0,0,0,0,0,0,0,0,0,0,0,0,0,50.1444212041,14.3688098633,2521.162354,-0.844841,5.020793,242.983978,0.855949,90.295601,0.064206,0.142919,-9.623053,-128.474869,-76.786301,149.604187,-10.099220,3.334714,9.623053,1.032362,0.000000,0.000000,0.000000,0.774170,-0.337376,-33.281078,0.119430,0.000000,0.037372,0.037372,0.007038,1.000000,2061.985840
0.010379,0.027000,0.000000,0.119452,0.007055,-0.000015,0.000000,0.000000,0.000000,0.743262,0.000000,0.000000,0.000000,0.000000,0.000000,1.000000,1.000000,1.000000,1.000000,1.000000,1.000000,3.000000,0.000000,0.000000,0.000000,0.000000,0.000000,0.000000,0.000000,1.000000,1.000000,1.000000,1.000000,1.000000,1.000000,0,0,0,0,0,0,0,0,0,0,0,0,0,50.1444176963,14.3688007356,2521.318604,-0.877116,5.027081,243.028000,0.801354,90.274803,0.064332,0.142884,-9.639934,-128.436523,-76.785172,149.563004,-10.232155,3.322901,9.639934,1.031628,0.000000,0.000000,0.000000,0.787970,-0.304503,-33.256943,0.119430,0.000000,0.037372,0.037372,0.007038,1.000000,2061.861328
0.010379,0.027000,0.000000,0.119452,0.007055,-0.000015,0.000000,0.000000,0.000000,0.743262,0.000000,0.000000,0.000000,0.000000,0.000000,1.000000,1.000000,1.000000,1.000000,1.000000,1.000000,3.000000,0.000000,0.000000,0.000000,0.000000,0.000000,0.000000,0.000000,1.000000,1.000000,1.000000,1.000000,1.000000,1.000000,0,0,0,0,0,0,0,0,0,0,0,0,0,50.1444141886,14.3687916107,2521.475342,-0.907689,5.033288,243.072601,0.746310,90.254051,0.064456,0.142850,-9.656428,-128.398483,-76.783928,149.521790,-10.366191,3.311391,9.656428,1.030889,0.000000,0.000000,0.000000,0.801921,-0.271676,-33.232655,0.119430,0.000000,0.037372,0.037372,0.007038,1.000000,2061.736816
0.010379,0.027000,0.000000,0.119452,0.007055,-0.000015,0.000000,0.000000,0.000000,0.743262,0.000000,0.000000,0.000000,0.000000,0.000000,1.000000,1.000000,1.000000,1.000000,1.000000,1.000000,3.000000,0.000000,0.000000,0.000000,0.000000,0.000000,0.000000,0.000000,1.000000,1.000000,1.000000,1.000000,1.000000,1.000000,0,0,0,0,0,0,0,0,0,0,0,0,0,50.1444071733,14.3687733690,2521.789307,-0.963656,5.045454,243.163284,0.635162,90.212654,0.064697,0.142782,-9.688260,-128.323334,-76.781059,149.439316,-10.636818,3.289344,9.688260,1.029400,0.000000,0.000000,0.000000,0.830219,-0.206316,-33.183727,0.119430,0.000000,0.037372,0.037372,0.007038,1.000000,2061.488525
0.010379,0.027000,0.000000,0.119452,0.007055,-0.000015,0.000000,0.000000,0.000000,0.743262,0.000000,0.000000,0.000000,0.000000,0.000000,1.000000,1.000000,1.000000,1.000000,1.000000,1.000000,3.000000,0.000000,0.000000,0.000000,0.000000,0.000000,0.000000,0.000000,1.000000,1.000000,1.000000,1.000000,1.000000,1.000000,0,0,0,0,0,0,0,0,0,0,0,0,0,50.1444036658,14.3687642521,2521.946777,-0.989018,5.051409,243.209229,0.579201,90.192017,0.064813,0.142748,-9.703595,-128.286240,-76.779404,149.398087,-10.773035,3.278832,9.703595,1.028651,0.000000,0.000000,0.000000,0.844537,-0.173863,-33.159149,0.119430,0.000000,0.037372,0.037372,0.007038,1.000000,2061.364502
0.010379,0.027000,0.000000,0.119452,0.007055,-0.000015,0.000000,0.000000,0.000000,0.743262,0.000000,0.000000,0.000000,0.000000,0.000000,1.000000,1.000000,1.000000,1.000000,1.000000,1.000000,3.000000,0.000000,0.000000,0.000000,0.000000,0.000000,0.000000,0.000000,1.000000,1.000000,1.000000,1.000000,1.000000,1.000000,0,0,0,0,0,0,0,0,0,0,0,0,0,50.1444001583,14.3687551378,2522.104492,-1.012615,5.057276,243.255478,0.523077,90.171410,0.064927,0.142714,-9.718543,-128.249481,-76.777580,149.356857,-10.909610,3.268679,9.718543,1.027902,0.000000,0.000000,0.000000,0.858947,-0.141611,-33.134529,0.119430,0.000000,0.037372,0.037372,0.007038,1.000000,2061.240723
0.010379,0.027000,0.000000,0.119452,0.007055,-0.000015,0.000000,0.000000,0.000000,0.743262,0.000000,0.000000,0.000000,0.000000,0.000000,1.000000,1.000000,1.000000,1.000000,1.000000,1.000000,3.000000,0.000000,0.000000,0.000000,0.000000,0.000000,0.000000,0.000000,1.000000,1.000000,1.000000,1.000000,1.000000,1.000000,0,0,0,0,0,0,0,0,0,0,0,0,0,50.1443966510,14.3687460262,2522.262451,-1.034439,5.063052,243.301987,0.466858,90.150833,0.065038,0.142681,-9.733106,-128.213058,-76.775574,149.315659,-11.046359,3.258893,9.733106,1.027152,0.000000,0.000000,0.000000,0.873434,-0.109598,-33.109886,0.119430,0.000000,0.037372,0.037372,0.007038,1.000000,2061.117188
0.010379,0.027000,0.000000,0.119452,0.007055,-0.000015,0.000000,0.000000,0.000000,0.743262,0.000000,0.000000,0.000000,0.000000,0.000000,1.000000,1.000000,1.000000,1.000000,1.000000,1.000000,3.000000,0.000000,0.000000,0.000000,0.000000,0.000000,0.000000,0.000000,1.000000,1.000000,1.000000,1.000000,1.000000,1.000000,0,0,0,0,0,0,0,0,0,0,0,0,0,50.1443931437,14.3687369171,2522.420410,-1.054482,5.068733,243.348694,0.410615,90.130295,0.065146,0.142647,-9.747282,-128.176987,-76.773384,149.274506,-11.183102,3.249485,9.747282,1.026402,0.000000,0.000000,0.000000,0.887982,-0.077860,-33.085247,0.119430,0.000000,0.037372,0.037372,0.007038,1.000000,2060.993652
0.010379,0.027000,0.000000,0.119452,0.007055,-0.000015,0.000000,0.000000,0.000000,0.743262,0.000000,0.000000,0.000000,0.000000,0.000000,1.000000,1.000000,1.000000,1.000000,1.000000,1.000000,3.000000,0.000000,0.000000,0.000000,0.000000,0.000000,0.000000,0.000000,1.000000,1.000000,1.000000,1.000000,1.000000,1.000000,0,0,0,0,0,0,0,0,0,0,0,0,0,50.1443861295,14.3687187065,2522.737549,-1.089204,5.079797,243.442383,0.298328,90.089325,0.065355,0.142581,-9.774485,-128.105911,-76.768379,149.192383,-11.455859,3.231834,9.774485,1.024904,0.000000,0.000000,0.000000,0.917197,-0.015351,-33.036049,0.119430,0.000000,0.037372,0.037372,0.007038,1.000000,2060.747314
0.010379,0.027000,0.000000,0.119452,0.007055,-0.000015,0.000000,0.000000,0.000000,0.743262,0.000000,0.000000,0.000000,0.000000,0.000000,1.000000,1.000000,1.000000,1.000000,1.000000,1.000000,3.000000,0.000000,0.000000,0.000000,0.000000,0.000000,0.000000,0.000000,1.000000,1.000000,1.000000,1.000000,1.000000,1.000000,0,0,0,0,0,0,0,0,0,0,0,0,0,50.1443826226,14.3687096050,2522.896240,-1.103881,5.085173,243.489273,0.242419,90.068886,0.065456,0.142549,-9.787514,-128.070938,-76.765541,149.151443,-11.591523,3.223603,9.787514,1.024157,0.000000,0.000000,0.000000,0.931830,0.015352,-33.011524,0.119430,0.000000,0.037372,0.037372,0.007038,1.000000,2060.624268
0.010379,0.027000,0.000000,0.119452,0.007055,-0.000015,0.000000,0.000000,0.000000,0.743262,0.000000,0.000000,0.000000,0.000000,0.000000,1.000000,1.000000,1.000000,1.000000,1.000000,1.000000,3.000000,0.000000,0.000000,0.000000,0.000000,0.000000,0.000000,0.000000,1.000000,1.000000,1.000000,1.000000,1.000000,1.000000,0,0,0,0,0,0,0,0,0,0,0,0,0,50.1443791158,14.3687005060,2523.055420,-1.116769,5.090438,243.536087,0.186754,90.048477,0.065554,0.142516,-9.800162,-128.036331,-76.762459,149.110596,-11.726483,3.215776,9.800162,1.023413,0.000000,0.000000,0.000000,0.946458,0.045644,-32.987072,0.119430,0.000000,0.037372,0.037372,0.007038,1.000000,2060.501465
0.010379,0.027000,0.000000,0.119452,0.007055,-0.000015,0.000000,0.000000,0.000000,0.743262,0.000000,0.000000,0.000000,0.000000,0.000000,1.000000,1.000000,1.000000,1.000000,1.000000,1.000000,3.000000,0.000000,0.000000,0.000000,0.000000,0.000000,0.000000,0.000000,1.000000,1.000000,1.000000,1.000000,1.000000,1.000000,0,0,0,0,0,0,0,0,0,0,0,0,0,50.1443756091,14.3686914094,2523.214600,-1.127873,5.095590,243.582779,0.131399,90.028107,0.065649,0.142484,-9.812433,-128.002106,-76.759140,149.069855,-11.860571,3.208358,9.812433,1.022670,0.000000,0.000000,0.000000,0.961065,0.075493,-32.962700,0.119430,0.000000,0.037372,0.037372,0.007038,1.000000,2060.378906
0.010379,0.027000,0.000000,0.119452,0.007055,-0.000015,0.000000,0.000000,0.000000,0.743262,0.000000,0.000000,0.000000,0.000000,0.000000,1.000000,1.000000,1.000000,1.000000,1.000000,1.000000,3.000000,0.000000,0.000000,0.000000,0.000000,0.000000,0.000000,0.000000,1.000000,1.000000,1.000000,1.000000,1.000000,1.000000,0,0,0,0,0,0,0,0,0,0,0,0,0,50.1443721026,14.3686823152,2523.374023,-1.137198,5.100623,243.629303,0.076416,90.007774,0.065742,0.142452,-9.824328,-127.968254,-76.755554,149.029236,-11.993620,3.201350,9.824328,1.021931,0.000000,0.000000,0.000000,0.975634,0.104868,-32.938423,0.119430,0.000000,0.037372,0.037372,0.007038,1.000000,2060.256592
0.010379,0.027000,0.000000,0.119452,0.007055,-0.000015,0.000000,0.000000,0.000000,0.743262,0.000000,0.000000,0.000000,0.000000,0.000000,1.000000,1.000000,1.000000,1.000000,1.000000,1.000000,3.000000,0.000000,0.000000,0.000000,0.000000,0.000000,0.000000,0.000000,1.000000,1.000000,1.000000,1.000000,1.000000,1.000000,0,0,0,0,0,0,0,0,0,0,0,0,0,50.1443650901,14.3686641339,2523.693359,-1.150548,5.110314,243.721542,-0.032181,89.967201,0.065920,0.142388,-9.846995,-127.901703,-76.747551,148.948380,-12.255961,3.188571,9.846995,1.020460,0.000000,0.000000,0.000000,1.001000,0.162083,-32.890381,0.119430,0.000000,0.037372,0.037372,0.007038,1.000000,2060.012451
0.010379,0.027000,0.000000,0.119452,0.007055,-0.000015,0.000000,0.000000,0.000000,0.743262,0.000000,0.000000,0.000000,0.000000,0.000000,1.000000,1.000000,1.000000,1.000000,1.000000,1.000000,3.000000,0.000000,0.000000,0.000000,0.000000,0.000000,0.000000,0.000000,1.000000,1.000000,1.000000,1.000000,1.000000,1.000000,0,0,0,0,0,0,0,0,0,0,0,0,0,50.1443615842,14.3686550469,2523.853271,-1.154595,5.114968,243.767151,-0.085675,89.946716,0.066006,0.142356,-9.857745,-127.868622,-76.742928,148.907745,-12.384940,3.182805,9.857745,1.019729,0.000000,0.000000,0.000000,0.988800,0.189919,-32.867779,0.119430,0.000000,0.037372,0.037372,0.007038,1.000000,2059.890625
0.010379,0.027000,0.000000,0.119452,0.007055,-0.000015,0.000000,0.000000,0.000000,0.743262,0.000000,0.000000,0.000000,0.000000,0.000000,1.000000,1.000000,1.000000,1.000000,1.000000,1.000000,3.000000,0.000000,0.000000,0.000000,0.000000,0.000000,0.000000,0.000000,1.000000,1.000000,1.000000,1.000000,1.000000,1.000000,0,0,0,0,0,0,0,0,0,0,0,0,0,50.1443580785,14.3686459621,2524.013428,-1.156907,5.119512,243.812363,-0.138554,89.926025,0.066088,0.142324,-9.868101,-127.835556,-76.737823,148.866882,-12.512256,3.177510,9.868101,1.019004,0.000000,0.000000,0.000000,0.976929,0.217215,-32.845318,0.119430,0.000000,0.037372,0.037372,0.007038,1.000000,2059.769043
0.010379,0.027000,0.000000,0.119452,0.007055,-0.000015,0.000000,0.000000,0.000000,0.743262,0.000000,0.000000,0.000000,0.000000,0.000000,1.000000,1.000000,1.000000,1.000000,1.000000,1.000000,3.000000,0.000000,0.000000,0.000000,0.000000,0.000000,0.000000,0.000000,1.000000,1.000000,1.000000,1.000000,1.000000,1.000000,0,0,0,0,0,0,0,0,0,0,0,0,0,50.1443545730,14.3686368797,2524.173828,-1.157502,5.123962,243.857086,-0.190762,89.905151,0.066169,0.142291,-9.878071,-127.802536,-76.732231,148.825806,-12.637760,3.172739,9.878071,1.018291,0.000000,0.000000,0.000000,0.965405,0.243944,-32.823177,0.119430,0.000000,0.037372,0.037372,0.007038,1.000000,2059.647461
0.010379,0.027000,0.000000,0.119452,0.007055,-0.000015,0.000000,0.000000,0.000000,0.743262,0.000000,0.000000,0.000000,0.000000,0.000000,1.000000,1.000000,1.000000,1.000000,1.000000,1.000000,3.000000,0.000000,0.000000,0.000000,0.000000,0.000000,0.000000,0.000000,1.000000,1.000000,1.000000,1.000000,1.000000,1.000000,0,0,0,0,0,0,0,0,0,0,0,0,0,50.1443510678,14.3686277996,2524.334229,-1.156398,5.128335,243.901306,-0.242244,89.884087,0.066247,0.142259,-9.887662,-127.769547,-76.726151,148.784515,-12.761312,3.168534,9.887662,1.017593,0.000000,0.000000,0.000000,0.954242,0.270079,-32.801487,0.119430,0.000000,0.037372,0.037372,0.007038,1.000000,2059.526123
