Aileron,Aileron_trim,Elevator,Elevator_Trim,Ruder,Rudder_trim,Flaps,Slats,Speedbrake,Throttle1,Throttle2,Starter1,Starter2,Fuel_pump1,Fuel_pump2,Cutoff1,Cutoff2,Mixture1,Mixture2,Propeller_pitch1,Propeller_pitch2,Magnetos1,Magnetos2,Ignition1,Ignition2,Brake_left,Brake_right,Brake_parking,Steering,Gear_down,Gear_position,Gear_position1,Gear_position2,Gear_position3,Gear_position4,Engine_pump1,Engine_pump2,Electric_pump1,Electric_pump2,Battery_switch,External_power,APU_Generator,Engage_autopilot,Heading_select,Altitude_select,Bank_angle_select,Vertical_speed_select,Speed_select,Latitude_deg,Longitude_deg,Altitude_ft,Roll_deg,Pitch_deg,Heading_deg,Side_slip_rad,Airspeed_kt,Glideslope,Mach,Speed_down_fps,Speed_east_fps,Speed_nort_fps,uBody_fps,vBody_fps,wBody_fps,Vertical_speed_fps,nlf_acceleration,ned_down_accel_fps_sec,ned_east_accel_fps_sec,ned_north_accel_fps_sec,pilot_x_accel_fps_sec,pilot_y_accel_fps_sec,pilot_z_accel_fps_sec,elevator_pos_norm,flap_pos_norm,left_aileron_pos_norm,right_aileron_pos_norm,rudder_pos_norm,engine_running,rpm
0.000000,0.027000,0.000000,0.000000,0.000000,0.000000,0.000000,0.000000,0.000000,0.000000,0.000000,0.000000,0.000000,0.000000,0.000000,1.000000,1.000000,1.000000,1.000000,1.000000,1.000000,3.000000,0.000000,0.000000,0.000000,0.000000,0.000000,0.000000,0.000000,1.000000,1.000000,1.000000,1.000000,1.000000,1.000000,0,0,0,0,0,0,0,0,0,0,0,0,0,50.1451720000,14.3707760000,5000.000000,0.000000,0.424000,240.000000,0.000000,0.000000,0.000000,0.000000,0.000000,0.000000,0.000000,0.000000,0.000000,0.000000,0.000000,0.000000,0.000000,0.000000,0.000000,0.000000,0.000000,-32.000000,0.000000,0.000000,0.000000,0.000000,0.000000,1.000000,3000.000000
-0.000000,0.027000,0.000000,0.000000,-0.000015,-0.000015,0.000000,0.000000,0.000000,0.000000,0.000000,0.000000,0.000000,0.000000,0.000000,1.000000,1.000000,1.000000,1.000000,1.000000,1.000000,3.000000,0.000000,0.000000,0.000000,0.999985,0.999985,0.000000,0.000000,1.000000,1.000000,1.000000,1.000000,1.000000,1.000000,0,0,0,0,0,0,0,0,0,0,0,0,0,50.1451720000,14.3707760000,5000.000000,0.000000,0.424000,240.000000,0.000000,0.000000,0.000000,0.000000,0.000000,0.000000,0.000000,0.000000,0.000000,0.000000,0.000000,0.000000,0.000000,0.000000,0.000000,0.000000,0.000000,-32.000000,0.000000,0.000000,0.000000,0.000000,0.000000,1.000000,3000.000000
-0.000000,0.027000,0.000000,0.000000,-0.000015,0.015885,0.000000,0.000000,0.000000,0.000000,0.000000,0.000000,0.000000,0.000000,0.000000,1.000000,1.000000,1.000000,1.000000,1.000000,1.000000,3.000000,0.000000,0.000000,0.000000,0.999985,0.999985,0.000000,0.000000,1.000000,1.000000,1.000000,1.000000,1.000000,1.000000,0,0,0,0,0,0,0,0,0,0,0,0,0,50.1451720000,14.3707760000,5000.000000,0.000000,0.424000,240.000000,0.000000,0.000000,0.000000,0.000000,0.000000,0.000000,0.000000,0.000000,0.000000,0.000000,0.000000,0.000000,0.000000,0.000000,0.000000,0.000000,0.000000,-32.000000,0.000000,0.000000,0.000000,0.000000,0.000000,1.000000,3000.000000
-0.000000,0.027000,0.000000,0.000000,-0.000015,0.015885,0.000000,0.000000,0.000000,0.000000,0.000000,0.000000,0.000000,0.000000,0.000000,1.000000,1.000000,1.000000,1.000000,1.000000,1.000000,3.000000,0.000000,0.000000,0.000000,0.999985,0.999985,0.000000,0.000000,1.000000,1.000000,1.000000,1.000000,1.000000,1.000000,0,0,0,0,0,0,0,0,0,0,0,0,0,50.1451720000,14.3707760000,5000.000000,0.000000,0.424000,240.000000,0.000000,0.000000,0.000000,0.000000,0.000000,0.000000,0.000000,0.000000,0.000000,0.000000,0.000000,0.000000,0.000000,0.000000,0.000000,0.000000,0.000000,-32.000000,0.000000,0.000000,0.000000,0.000000,0.000000,1.000000,3000.000000
-0.000000,0.027000,0.000000,0.000000,-0.000015,0.015885,0.000000,0.000000,0.000000,0.000000,0.000000,0.000000,0.000000,0.000000,0.000000,1.000000,1.000000,1.000000,1.000000,1.000000,1.000000,3.000000,0.000000,0.000000,0.000000,0.999985,0.999985,0.000000,0.000000,1.000000,1.000000,1.000000,1.000000,1.000000,1.000000,0,0,0,0,0,0,0,0,0,0,0,0,0,50.1451720000,14.3707760000,5000.000000,0.000000,0.424000,240.000000,0.000000,0.000000,0.000000,0.000000,0.000000,0.000000,0.000000,0.000000,0.000000,0.000000,0.000000,0.000000,0.000000,0.000000,0.000000,0.000000,0.000000,-32.000000,0.000000,0.000000,0.000000,0.000000,0.000000,1.000000,3000.000000
-0.000000,0.027000,0.000000,0.000000,-0.000015,0.015885,0.000000,0.000000,0.000000,0.000000,0.000000,0.000000,0.000000,0.000000,0.000000,1.000000,1.000000,1.000000,1.000000,1.000000,1.000000,3.000000,0.000000,0.000000,0.000000,0.999985,0.999985,0.000000,0.000000,1.000000,1.000000,1.000000,1.000000,1.000000,1.000000,0,0,0,0,0,0,0,0,0,0,0,0,0,50.1451720000,14.3707760000,5000.000000,0.000000,0.424000,240.000000,0.000000,0.000000,0.000000,0.000000,0.000000,0.000000,0.000000,0.000000,0.000000,0.000000,0.000000,0.000000,0.000000,0.000000,0.000000,0.000000,0.000000,-32.000000,0.000000,0.000000,0.000000,0.000000,0.000000,1.000000,3000.000000
-0.000000,0.027000,0.000000,0.000000,-0.000015,0.015885,0.000000,0.000000,0.000000,0.000000,0.000000,0.000000,0.000000,0.000000,0.000000,1.000000,1.000000,1.000000,1.000000,1.000000,1.000000,3.000000,0.000000,0.000000,0.000000,0.999985,0.999985,0.000000,0.000000,1.000000,1.000000,1.000000,1.000000,1.000000,1.000000,0,0,0,0,0,0,0,0,0,0,0,0,0,50.1451720000,14.3707760000,5000.000000,0.000000,0.424000,240.000000,0.000000,0.000000,0.000000,0.000000,0.000000,0.000000,0.000000,0.000000,0.000000,0.000000,0.000000,0.000000,0.000000,0.000000,0.000000,0.000000,0.000000,-32.000000,0.000000,0.000000,0.000000,0.000000,0.000000,1.000000,3000.000000
-0.000000,0.027000,0.000000,0.000000,-0.000015,0.015885,0.000000,0.000000,0.000000,0.000000,0.000000,0.000000,0.000000,0.000000,0.000000,1.000000,1.000000,1.000000,1.000000,1.000000,1.000000,3.000000,0.000000,0.000000,0.000000,0.999985,0.999985,0.000000,0.000000,1.000000,1.000000,1.000000,1.000000,1.000000,1.000000,0,0,0,0,0,0,0,0,0,0,0,0,0,50.1451720000,14.3707760000,5000.000000,0.000000,0.424000,240.000000,0.000000,0.000000,0.000000,0.000000,0.000000,0.000000,0.000000,0.000000,0.000000,0.000000,0.000000,0.000000,0.000000,0.000000,0.000000,0.000000,0.000000,-32.000000,0.000000,0.000000,0.000000,0.000000,0.000000,1.000000,3000.000000
-0.000000,0.027000,0.000000,0.000000,-0.089860,0.015885,0.000000,0.000000,0.000000,0.000000,0.000000,0.000000,0.000000,0.000000,0.000000,1.000000,1.000000,1.000000,1.000000,1.000000,1.000000,3.000000,0.000000,0.000000,0.000000,0.000000,0.000000,0.000000,0.000000,1.000000,1.000000,1.000000,1.000000,1.000000,1.000000,0,0,0,0,0,0,0,0,0,0,0,0,0,50.1451720000,14.3707760000,5000.000000,0.000000,0.424000,240.000000,0.000000,0.000000,0.000000,0.000000,0.000000,0.000000,0.000000,0.000000,0.000000,0.000000,0.000000,0.000000,0.000000,0.000000,0.000000,0.000000,0.000000,-32.000000,0.000000,0.000000,0.000000,0.000000,0.000000,1.000000,3000.000000
-0.000000,0.027000,0.000000,0.000000,-0.089860,0.015885,0.000000,0.000000,0.000000,0.000000,0.000000,0.000000,0.000000,0.000000,0.000000,1.000000,1.000000,1.000000,1.000000,1.000000,1.000000,3.000000,0.000000,0.000000,0.000000,0.000000,0.000000,0.000000,0.000000,1.000000,1.000000,1.000000,1.000000,1.000000,1.000000,0,0,0,0,0,0,0,0,0,0,0,0,0,50.1451720000,14.3707760000,5000.000000,0.000000,0.424000,240.000000,0.000000,0.000000,0.000000,0.000000,0.000000,0.000000,0.000000,0.000000,0.000000,0.000000,0.000000,0.000000,0.000000,0.000000,0.000000,0.000000,0.000000,-32.000000,0.000000,0.000000,0.000000,0.000000,0.000000,1.000000,3000.000000
-0.000000,0.027000,0.000000,0.000000,-0.089860,0.015885,0.000000,0.000000,0.000000,0.000000,0.000000,0.000000,0.000000,0.000000,0.000000,1.000000,1.000000,1.000000,1.000000,1.000000,1.000000,3.000000,0.000000,0.000000,0.000000,0.000000,0.000000,0.000000,0.000000,1.000000,1.000000,1.000000,1.000000,1.000000,1.000000,0,0,0,0,0,0,0,0,0,0,0,0,0,50.1451720000,14.3707760000,5000.000000,0.000000,0.424000,240.000000,0.000000,0.000000,0.000000,0.000000,0.000000,0.000000,0.000000,0.000000,0.000000,0.000000,0.000000,0.000000,0.000000,0.000000,0.000000,0.000000,0.000000,-32.000000,0.000000,0.000000,0.000000,0.000000,0.000000,1.000000,3000.000000
-0.000000,0.027000,0.000000,0.000000,-0.089860,0.015885,0.000000,0.000000,0.000000,0.000000,0.000000,0.000000,0.000000,0.000000,0.000000,1.000000,1.000000,1.000000,1.000000,1.000000,1.000000,3.000000,0.000000,0.000000,0.000000,0.000000,0.000000,0.000000,0.000000,1.000000,1.000000,1.000000,1.000000,1.000000,1.000000,0,0,0,0,0,0,0,0,0,0,0,0,0,50.1451720000,14.3707760000,5000.000000,0.000000,0.424000,240.000000,0.000000,0.000000,0.000000,0.000000,0.000000,0.000000,0.000000,0.000000,0.000000,0.000000,0.000000,0.000000,0.000000,0.000000,0.000000,0.000000,0.000000,-32.000000,0.000000,0.000000,0.000000,0.000000,0.000000,1.000000,3000.000000
-0.000000,0.027000,0.000000,0.000000,-0.089860,0.015885,0.000000,0.000000,0.000000,0.000000,0.000000,0.000000,0.000000,0.000000,0.000000,1.000000,1.000000,1.000000,1.000000,1.000000,1.000000,3.000000,0.000000,0.000000,0.000000,0.000000,0.000000,0.000000,0.000000,1.000000,1.000000,1.000000,1.000000,1.000000,1.000000,0,0,0,0,0,0,0,0,0,0,0,0,0,50.1451720000,14.3707760000,5000.000000,0.000000,0.424000,240.000000,0.000000,0.000000,0.000000,0.000000,0.000000,0.000000,0.000000,0.000000,0.000000,0.000000,0.000000,0.000000,0.000000,0.000000,0.000000,0.000000,0.000000,-32.000000,0.000000,0.000000,0.000000,0.000000,0.000000,1.000000,3000.000000
0.010822,0.027000,0.000000,0.115258,-0.008607,0.015885,0.000000,0.000000,0.000000,0.775761,0.000000,0.000000,0.000000,0.000000,0.000000,1.000000,1.000000,1.000000,1.000000,1.000000,1.000000,3.000000,0.000000,0.000000,0.000000,0.000000,0.000000,0.000000,0.000000,1.000000,1.000000,1.000000,1.000000,1.000000,1.000000,0,0,0,0,0,0,0,0,0,0,0,0,0,50.1451722712,14.3707758036,4999.987305,0.183368,1.997982,240.000000,-0.000882,88.644150,0.007400,0.146915,-1.192773,-139.573212,-80.601852,161.118469,-0.002481,4.427232,1.192773,0.997518,0.000000,0.000000,0.000000,1.068842,-0.028773,-32.167866,0.115237,0.000000,0.037815,0.037815,0.007277,1.000000,2122.174072
0.010822,0.027000,0.000000,0.115258,-0.078141,0.015885,0.000000,0.000000,0.000000,0.775761,0.000000,0.000000,0.000000,0.000000,0.000000,1.000000,1.000000,1.000000,1.000000,1.000000,1.000000,3.000000,0.000000,0.000000,0.000000,0.000000,0.000000,0.000000,0.000000,1.000000,1.000000,1.000000,1.000000,1.000000,1.000000,0,0,0,0,0,0,0,0,0,0,0,0,0,50.1449490630,14.3701866603,5002.642090,-3.864302,3.174099,244.216888,-0.292255,92.781418,0.029236,0.153775,-4.673544,-136.995758,-82.283745,159.162659,-14.750130,3.158792,4.673544,1.094399,0.000000,0.000000,0.000000,0.678624,0.723954,-35.269695,0.115237,0.000000,0.037815,0.037815,-0.062245,1.000000,0.000000
0.010822,0.027000,0.000000,0.115258,-0.078141,0.015885,0.000000,0.000000,0.000000,0.775761,0.000000,0.000000,0.000000,0.000000,0.000000,1.000000,1.000000,1.000000,1.000000,1.000000,1.000000,3.000000,0.000000,0.000000,0.000000,0.000000,0.000000,0.000000,0.000000,1.000000,1.000000,1.000000,1.000000,1.000000,1.000000,0,0,0,0,0,0,0,0,0,0,0,0,0,50.1448474613,14.3699246743,5004.905273,-2.806870,3.671535,245.433426,-1.748839,92.325066,0.037226,0.153056,-5.927164,-136.148880,-82.412582,158.142670,-18.532614,3.304813,5.927164,1.083431,0.000000,0.000000,0.000000,0.419847,1.302099,-34.934124,0.115237,0.000000,0.037815,0.037815,-0.062245,1.000000,2144.834229
0.010822,0.027000,0.000000,0.115258,-0.082048,0.015885,0.000000,0.000000,0.000000,0.775761,0.000000,0.000000,0.000000,0.000000,0.000000,1.000000,1.000000,1.000000,1.000000,1.000000,1.000000,3.000000,0.000000,0.000000,0.000000,0.000000,0.000000,0.000000,0.000000,1.000000,1.000000,1.000000,1.000000,1.000000,1.000000,0,0,0,0,0,0,0,0,0,0,0,0,0,50.1446336930,14.3693764762,5011.308105,-0.857973,4.202668,242.119812,1.292587,91.337151,0.049980,0.151380,-7.879433,-134.521484,-81.954033,157.385559,-9.589718,3.521164,7.879433,1.044173,0.000000,0.000000,0.000000,0.544121,-0.748086,-33.699581,0.115237,0.000000,0.037815,0.037815,-0.066151,1.000000,2141.807373
0.010822,0.027000,0.000000,0.115258,-0.082048,0.015885,0.000000,0.000000,0.000000,0.775761,0.000000,0.000000,0.000000,0.000000,0.000000,1.000000,1.000000,1.000000,1.000000,1.000000,1.000000,3.000000,0.000000,0.000000,0.000000,0.000000,0.000000,0.000000,0.000000,1.000000,1.000000,1.000000,1.000000,1.000000,1.000000,0,0,0,0,0,0,0,0,0,0,0,0,0,50.1446205901,14.3693430380,5011.754883,-0.974541,4.234910,241.853394,1.516061,91.261276,0.050542,0.151271,-7.962822,-134.387680,-81.971336,157.322647,-8.944120,3.513191,7.962822,1.044480,0.000000,0.000000,0.000000,0.503352,-0.860506,-33.708492,0.115237,0.000000,0.037815,0.037815,-0.066151,1.000000,2141.511719
0.010822,0.027000,0.000000,0.115258,-0.078141,0.015885,0.000000,0.000000,0.000000,0.775761,0.000000,0.000000,0.000000,0.000000,0.000000,1.000000,1.000000,1.000000,1.000000,1.000000,1.000000,3.000000,0.000000,0.000000,0.000000,0.000000,0.000000,0.000000,0.000000,1.000000,1.000000,1.000000,1.000000,1.000000,1.000000,0,0,0,0,0,0,0,0,0,0,0,0,0,50.1446074838,14.3693096344,5012.206055,-1.119686,4.269059,241.601288,1.720321,91.181122,0.051111,0.151155,-8.047059,-134.245071,-81.997276,157.251358,-8.352220,3.506403,8.047059,1.045378,0.000000,0.000000,0.000000,0.469834,-0.975593,-33.735954,0.115237,0.000000,0.037815,0.037815,-0.062245,1.000000,2141.198242
0.010822,0.027000,0.000000,0.115258,-0.078141,0.015885,0.000000,0.000000,0.000000,0.775761,0.000000,0.000000,0.000000,0.000000,0.000000,1.000000,1.000000,1.000000,1.000000,1.000000,1.000000,3.000000,0.000000,0.000000,0.000000,0.000000,0.000000,0.000000,0.000000,1.000000,1.000000,1.000000,1.000000,1.000000,1.000000,0,0,0,0,0,0,0,0,0,0,0,0,0,50.1446037383,14.3693000971,5012.335938,-1.166143,4.279091,241.532318,1.774747,91.157898,0.051276,0.151121,-8.071470,-134.202728,-82.006203,157.229492,-8.194065,3.504374,8.071470,1.045717,0.000000,0.000000,0.000000,0.461478,-1.000836,-33.746338,0.115237,0.000000,0.037815,0.037815,-0.062245,1.000000,2141.105713
0.010822,0.027000,0.000000,0.115258,-0.078141,0.015885,0.000000,0.000000,0.000000,0.775761,0.000000,0.000000,0.000000,0.000000,0.000000,1.000000,1.000000,1.000000,1.000000,1.000000,1.000000,3.000000,0.000000,0.000000,0.000000,0.000000,0.000000,0.000000,0.000000,1.000000,1.000000,1.000000,1.000000,1.000000,1.000000,0,0,0,0,0,0,0,0,0,0,0,0,0,50.1445981192,14.3692857970,5012.531738,-1.239787,4.294317,241.431641,1.852919,91.122650,0.051526,0.151070,-8.108399,-134.137955,-82.020836,157.195511,-7.966475,3.501134,8.108399,1.046328,0.000000,0.000000,0.000000,0.449515,-1.037924,-33.765163,0.115237,0.000000,0.037815,0.037815,-0.062245,1.000000,2140.964111
0.010822,0.027000,0.000000,0.115258,-0.078141,0.015885,0.000000,0.000000,0.000000,0.775761,0.000000,0.000000,0.000000,0.000000,0.000000,1.000000,1.000000,1.000000,1.000000,1.000000,1.000000,3.000000,0.000000,0.000000,0.000000,0.000000,0.000000,0.000000,0.000000,1.000000,1.000000,1.000000,1.000000,1.000000,1.000000,0,0,0,0,0,0,0,0,0,0,0,0,0,50.1445943726,14.3692762674,5012.662598,-1.291433,4.304565,241.366425,1.902660,91.098961,0.051694,0.151035,-8.133223,-134.093933,-82.031418,157.172104,-7.821343,3.498806,8.133223,1.046690,0.000000,0.000000,0.000000,0.443029,-1.058586,-33.776157,0.115237,0.000000,0.037815,0.037815,-0.062245,1.000000,2140.868164
0.010822,0.027000,0.000000,0.115258,-0.078141,0.015885,0.000000,0.000000,0.000000,0.775761,0.000000,0.000000,0.000000,0.000000,0.000000,1.000000,1.000000,1.000000,1.000000,1.000000,1.000000,3.000000,0.000000,0.000000,0.000000,0.000000,0.000000,0.000000,0.000000,1.000000,1.000000,1.000000,1.000000,1.000000,1.000000,0,0,0,0,0,0,0,0,0,0,0,0,0,50.1445924991,14.3692715039,5012.728027,-1.317997,4.309713,241.334412,1.926795,91.087097,0.051778,0.151018,-8.145718,-134.071655,-82.036964,157.160172,-7.750818,3.497557,8.145718,1.046947,0.000000,0.000000,0.000000,0.439254,-1.070699,-33.784164,0.115237,0.000000,0.037815,0.037815,-0.062245,1.000000,2140.819580
0.010822,0.027000,0.000000,0.115258,-0.078141,0.015885,0.000000,0.000000,0.000000,0.775761,0.000000,0.000000,0.000000,0.000000,0.000000,1.000000,1.000000,1.000000,1.000000,1.000000,1.000000,3.000000,0.000000,0.000000,0.000000,0.000000,0.000000,0.000000,0.000000,1.000000,1.000000,1.000000,1.000000,1.000000,1.000000,0,0,0,0,0,0,0,0,0,0,0,0,0,50.1445868778,14.3692572179,5012.925781,-1.400557,4.325232,241.240784,1.996238,91.051270,0.052033,0.150966,-8.183429,-134.003906,-82.054565,157.123520,-7.547462,3.493531,8.183429,1.047561,0.000000,0.000000,0.000000,0.430669,-1.099130,-33.802895,0.115237,0.000000,0.037815,0.037815,-0.062245,1.000000,2140.671387
0.010822,0.027000,0.000000,0.115258,-0.082048,0.015885,0.000000,0.000000,0.000000,0.775761,0.000000,0.000000,0.000000,0.000000,0.000000,1.000000,1.000000,1.000000,1.000000,1.000000,1.000000,3.000000,0.000000,0.000000,0.000000,0.000000,0.000000,0.000000,0.000000,1.000000,1.000000,1.000000,1.000000,1.000000,1.000000,0,0,0,0,0,0,0,0,0,0,0,0,0,50.1445812552,14.3692429393,5013.124023,-1.487240,4.340825,241.150909,2.061100,91.015305,0.052292,0.150913,-8.221613,-133.934647,-82.073700,157.085587,-7.356805,3.488860,8.221613,1.048284,0.000000,0.000000,0.000000,0.422207,-1.127607,-33.825260,0.115237,0.000000,0.037815,0.037815,-0.066151,1.000000,2140.520264
0.010822,0.027000,0.000000,0.115258,-0.078141,0.015885,0.000000,0.000000,0.000000,0.775761,0.000000,0.000000,0.000000,0.000000,0.000000,1.000000,1.000000,1.000000,1.000000,1.000000,1.000000,3.000000,0.000000,0.000000,0.000000,0.000000,0.000000,0.000000,0.000000,1.000000,1.000000,1.000000,1.000000,1.000000,1.000000,0,0,0,0,0,0,0,0,0,0,0,0,0,50.1445756313,14.3692286682,5013.323730,-1.577808,4.356446,241.064880,2.121359,90.979126,0.052554,0.150860,-8.260206,-133.864044,-82.094185,157.046478,-7.178885,3.483500,8.260206,1.048925,0.000000,0.000000,0.000000,0.415838,-1.150329,-33.844872,0.115237,0.000000,0.037815,0.037815,-0.062245,1.000000,2140.366211
0.010822,0.027000,0.000000,0.115258,-0.078141,0.015885,0.000000,0.000000,0.000000,0.775761,0.000000,0.000000,0.000000,0.000000,0.000000,1.000000,1.000000,1.000000,1.000000,1.000000,1.000000,3.000000,0.000000,0.000000,0.000000,0.000000,0.000000,0.000000,0.000000,1.000000,1.000000,1.000000,1.000000,1.000000,1.000000,0,0,0,0,0,0,0,0,0,0,0,0,0,50.1445718812,14.3692191583,5013.457031,-1.640232,4.366854,241.009720,2.158851,90.954987,0.052730,0.150824,-8.286189,-133.816116,-82.108772,157.019760,-7.067692,3.479451,8.286189,1.049377,0.000000,0.000000,0.000000,0.411823,-1.164658,-33.858772,0.115237,0.000000,0.037815,0.037815,-0.062245,1.000000,2140.261719
0.010822,0.027000,0.000000,0.115258,-0.078141,0.015885,0.000000,0.000000,0.000000,0.775761,0.000000,0.000000,0.000000,0.000000,0.000000,1.000000,1.000000,1.000000,1.000000,1.000000,1.000000,3.000000,0.000000,0.000000,0.000000,0.000000,0.000000,0.000000,0.000000,1.000000,1.000000,1.000000,1.000000,1.000000,1.000000,0,0,0,0,0,0,0,0,0,0,0,0,0,50.1445700060,14.3692144047,5013.523926,-1.672034,4.372052,240.982803,2.176788,90.942909,0.052818,0.150806,-8.299264,-133.791916,-82.116318,157.006226,-7.014334,3.477264,8.299264,1.049650,0.000000,0.000000,0.000000,0.409537,-1.172826,-33.867283,0.115237,0.000000,0.037815,0.037815,-0.062245,1.000000,2140.208984
0.010822,0.027000,0.000000,0.115258,-0.078141,0.015885,0.000000,0.000000,0.000000,0.775761,0.000000,0.000000,0.000000,0.000000,0.000000,1.000000,1.000000,1.000000,1.000000,1.000000,1.000000,3.000000,0.000000,0.000000,0.000000,0.000000,0.000000,0.000000,0.000000,1.000000,1.000000,1.000000,1.000000,1.000000,1.000000,0,0,0,0,0,0,0,0,0,0,0,0,0,50.1445643790,14.3692001490,5013.725098,-1.769691,4.387605,240.904831,2.227353,90.906578,0.053086,0.150752,-8.338700,-133.718445,-82.139923,156.964890,-6.863217,3.470129,8.338700,1.050263,0.000000,0.000000,0.000000,0.405251,-1.189293,-33.885994,0.115237,0.000000,0.037815,0.037815,-0.062245,1.000000,2140.049072
0.010822,0.027000,0.000000,0.115258,-0.078141,0.015885,0.000000,0.000000,0.000000,0.775761,0.000000,0.000000,0.000000,0.000000,0.000000,1.000000,1.000000,1.000000,1.000000,1.000000,1.000000,3.000000,0.000000,0.000000,0.000000,0.000000,0.000000,0.000000,0.000000,1.000000,1.000000,1.000000,1.000000,1.000000,1.000000,0,0,0,0,0,0,0,0,0,0,0,0,0,50.1445587504,14.3691859013,5013.927734,-1.870530,4.403068,240.831009,2.272966,90.870293,0.053356,0.150697,-8.378559,-133.643600,-82.165031,156.922546,-6.725770,3.461932,8.378559,1.050939,0.000000,0.000000,0.000000,0.400988,-1.205696,-33.906841,0.115237,0.000000,0.037815,0.037815,-0.062245,1.000000,2139.886230
0.010822,0.027000,0.000000,0.115258,-0.078141,0.015885,0.000000,0.000000,0.000000,0.775761,0.000000,0.000000,0.000000,0.000000,0.000000,1.000000,1.000000,1.000000,1.000000,1.000000,1.000000,3.000000,0.000000,0.000000,0.000000,0.000000,0.000000,0.000000,0.000000,1.000000,1.000000,1.000000,1.000000,1.000000,1.000000,0,0,0,0,0,0,0,0,0,0,0,0,0,50.1445531200,14.3691716616,5014.130859,-1.974308,4.418410,240.761429,2.313591,90.833969,0.053629,0.150642,-8.418731,-133.567474,-82.191597,156.879227,-6.602073,3.452681,8.418731,1.051477,0.000000,0.000000,0.000000,0.398662,-1.216047,-33.923183,0.115237,0.000000,0.037815,0.037815,-0.062245,1.000000,2139.720703
0.010822,0.027000,0.000000,0.115258,-0.078141,0.015885,0.000000,0.000000,0.000000,0.775761,0.000000,0.000000,0.000000,0.000000,0.000000,1.000000,1.000000,1.000000,1.000000,1.000000,1.000000,3.000000,0.000000,0.000000,0.000000,0.000000,0.000000,0.000000,0.000000,1.000000,1.000000,1.000000,1.000000,1.000000,1.000000,0,0,0,0,0,0,0,0,0,0,0,0,0,50.1445512428,14.3691669169,5014.199219,-2.009508,4.423493,240.739197,2.326009,90.821922,0.053721,0.150624,-8.432213,-133.541794,-82.200783,156.864578,-6.563937,3.449322,8.432213,1.051710,0.000000,0.000000,0.000000,0.397457,-1.220822,-33.930431,0.115237,0.000000,0.037815,0.037815,-0.062245,1.000000,2139.665039
0.010822,0.027000,0.000000,0.115258,-0.078141,0.015885,0.000000,0.000000,0.000000,0.775761,0.000000,0.000000,0.000000,0.000000,0.000000,1.000000,1.000000,1.000000,1.000000,1.000000,1.000000,3.000000,0.000000,0.000000,0.000000,0.000000,0.000000,0.000000,0.000000,1.000000,1.000000,1.000000,1.000000,1.000000,1.000000,0,0,0,0,0,0,0,0,0,0,0,0,0,50.1445474878,14.3691574302,5014.335449,-2.080769,4.433605,240.696152,2.349169,90.797768,0.053904,0.150587,-8.459239,-133.490051,-82.219627,156.835007,-6.492277,3.442248,8.459239,1.052009,0.000000,0.000000,0.000000,0.396762,-1.224818,-33.939388,0.115237,0.000000,0.037815,0.037815,-0.062245,1.000000,2139.552734
0.010822,0.027000,0.000000,0.115258,-0.078141,0.015885,0.000000,0.000000,0.000000,0.775761,0.000000,0.000000,0.000000,0.000000,0.000000,1.000000,1.000000,1.000000,1.000000,1.000000,1.000000,3.000000,0.000000,0.000000,0.000000,0.000000,0.000000,0.000000,0.000000,1.000000,1.000000,1.000000,1.000000,1.000000,1.000000,0,0,0,0,0,0,0,0,0,0,0,0,0,50.1445418535,14.3691432071,5014.540527,-2.189660,4.448629,240.635223,2.379689,90.761627,0.054181,0.150531,-8.499980,-133.411423,-82.249092,156.789948,-6.396394,3.430649,8.499980,1.052487,0.000000,0.000000,0.000000,0.395836,-1.230601,-33.953888,0.115237,0.000000,0.037815,0.037815,-0.062245,1.000000,2139.382080
0.010822,0.027000,0.000000,0.115258,-0.078141,0.015885,0.000000,0.000000,0.000000,0.775761,0.000000,0.000000,0.000000,0.000000,0.000000,1.000000,1.000000,1.000000,1.000000,1.000000,1.000000,3.000000,0.000000,0.000000,0.000000,0.000000,0.000000,0.000000,0.000000,1.000000,1.000000,1.000000,1.000000,1.000000,1.000000,0,0,0,0,0,0,0,0,0,0,0,0,0,50.1445362172,14.3691289925,5014.747070,-2.300719,4.463467,240.578659,2.405127,90.725677,0.054460,0.150475,-8.540955,-133.331604,-82.279991,156.744080,-6.314482,3.417796,8.540955,1.052946,0.000000,0.000000,0.000000,0.395301,-1.234849,-33.967869,0.115237,0.000000,0.037815,0.037815,-0.062245,1.000000,2139.209473
0.010822,0.027000,0.000000,0.115258,-0.078141,0.015885,0.000000,0.000000,0.000000,0.775761,0.000000,0.000000,0.000000,0.000000,0.000000,1.000000,1.000000,1.000000,1.000000,1.000000,1.000000,3.000000,0.000000,0.000000,0.000000,0.000000,0.000000,0.000000,0.000000,1.000000,1.000000,1.000000,1.000000,1.000000,1.000000,0,0,0,0,0,0,0,0,0,0,0,0,0,50.1445305788,14.3691147866,5014.954590,-2.413694,4.478104,240.526505,2.425502,90.689819,0.054739,0.150418,-8.582029,-133.250687,-82.312263,156.697479,-6.246466,3.403751,8.582029,1.053231,0.000000,0.000000,0.000000,0.396570,-1.233125,-33.976166,0.115237,0.000000,0.037815,0.037815,-0.062245,1.000000,2139.034424
0.010822,0.027000,0.000000,0.115258,-0.078141,0.015885,0.000000,0.000000,0.000000,0.775761,0.000000,0.000000,0.000000,0.000000,0.000000,1.000000,1.000000,1.000000,1.000000,1.000000,1.000000,3.000000,0.000000,0.000000,0.000000,0.000000,0.000000,0.000000,0.000000,1.000000,1.000000,1.000000,1.000000,1.000000,1.000000,0,0,0,0,0,0,0,0,0,0,0,0,0,50.1445268185,14.3691053207,5015.093262,-2.489944,4.487746,240.494186,2.436272,90.666061,0.054926,0.150381,-8.609478,-133.196121,-82.334557,156.666016,-6.208841,3.393682,8.609478,1.053410,0.000000,0.000000,0.000000,0.397544,-1.231334,-33.981396,0.115237,0.000000,0.037815,0.037815,-0.062245,1.000000,2138.916504
0.010822,0.027000,0.000000,0.115258,-0.078141,0.015885,0.000000,0.000000,0.000000,0.775761,0.000000,0.000000,0.000000,0.000000,0.000000,1.000000,1.000000,1.000000,1.000000,1.000000,1.000000,3.000000,0.000000,0.000000,0.000000,0.000000,0.000000,0.000000,0.000000,1.000000,1.000000,1.000000,1.000000,1.000000,1.000000,0,0,0,0,0,0,0,0,0,0,0,0,0,50.1445249380,14.3691005893,5015.163086,-2.528319,4.492532,240.478745,2.440813,90.654221,0.055020,0.150362,-8.623223,-133.168655,-82.345932,156.650177,-6.192341,3.388427,8.623223,1.053542,0.000000,0.000000,0.000000,0.397755,-1.231470,-33.985443,0.115237,0.000000,0.037815,0.037815,-0.062245,1.000000,2138.857422
0.010822,0.027000,0.000000,0.115258,-0.078141,0.015885,0.000000,0.000000,0.000000,0.775761,0.000000,0.000000,0.000000,0.000000,0.000000,1.000000,1.000000,1.000000,1.000000,1.000000,1.000000,3.000000,0.000000,0.000000,0.000000,0.000000,0.000000,0.000000,0.000000,1.000000,1.000000,1.000000,1.000000,1.000000,1.000000,0,0,0,0,0,0,0,0,0,0,0,0,0,50.1445192950,14.3690864009,5015.372559,-2.644340,4.506748,240.435394,2.451111,90.618774,0.055300,0.150305,-8.664388,-133.085648,-82.380913,156.602234,-6.151950,3.371925,8.664388,1.053668,0.000000,0.000000,0.000000,0.400690,-1.223939,-33.988659,0.115237,0.000000,0.037815,0.037815,-0.062245,1.000000,2138.678223
0.010822,0.027000,0.000000,0.115258,-0.078141,0.015885,0.000000,0.000000,0.000000,0.775761,0.000000,0.000000,0.000000,0.000000,0.000000,1.000000,1.000000,1.000000,1.000000,1.000000,1.000000,3.000000,0.000000,0.000000,0.000000,0.000000,0.000000,0.000000,0.000000,1.000000,1.000000,1.000000,1.000000,1.000000,1.000000,0,0,0,0,0,0,0,0,0,0,0,0,0,50.1445080014,14.3690580509,5015.794434,-2.879487,4.534548,240.361771,2.456848,90.548714,0.055860,0.150191,-8.746457,-132.916809,-82.454765,156.504593,-6.111819,3.335396,8.746457,1.053834,0.000000,0.000000,0.000000,0.407613,-1.205135,-33.992641,0.115237,0.000000,0.037815,0.037815,-0.062245,1.000000,2138.314209
0.010822,0.027000,0.000000,0.115258,-0.078141,0.015885,0.000000,0.000000,0.000000,0.775761,0.000000,0.000000,0.000000,0.000000,0.000000,1.000000,1.000000,1.000000,1.000000,1.000000,1.000000,3.000000,0.000000,0.000000,0.000000,0.000000,0.000000,0.000000,0.000000,1.000000,1.000000,1.000000,1.000000,1.000000,1.000000,0,0,0,0,0,0,0,0,0,0,0,0,0,50.1445042346,14.3690486090,5015.936035,-2.958516,4.543632,240.341080,2.454417,90.525558,0.056046,0.150153,-8.773694,-132.859741,-82.480507,156.471558,-6.110313,3.322183,8.773694,1.053734,0.000000,0.000000,0.000000,0.411180,-1.194387,-33.988945,0.115237,0.000000,0.037815,0.037815,-0.062245,1.000000,2138.191650
0.010822,0.027000,0.000000,0.115258,-0.074235,0.015885,0.000000,0.000000,0.000000,0.775761,0.000000,0.000000,0.000000,0.000000,0.000000,1.000000,1.000000,1.000000,1.000000,1.000000,1.000000,3.000000,0.000000,0.000000,0.000000,0.000000,0.000000,0.000000,0.000000,1.000000,1.000000,1.000000,1.000000,1.000000,1.000000,0,0,0,0,0,0,0,0,0,0,0,0,0,50.1445023507,14.3690438895,5016.007324,-2.998111,4.548141,240.331451,2.452396,90.514053,0.056139,0.150134,-8.787293,-132.831055,-82.493591,156.454956,-6.111760,3.315375,8.787293,1.053758,0.000000,0.000000,0.000000,0.412467,-1.190847,-33.989529,0.115237,0.000000,0.037815,0.037815,-0.058339,1.000000,2138.130127
0.010822,0.027000,0.000000,0.115258,-0.074235,0.015885,0.000000,0.000000,0.000000,0.775761,0.000000,0.000000,0.000000,0.000000,0.000000,1.000000,1.000000,1.000000,1.000000,1.000000,1.000000,3.000000,0.000000,0.000000,0.000000,0.000000,0.000000,0.000000,0.000000,1.000000,1.000000,1.000000,1.000000,1.000000,1.000000,0,0,0,0,0,0,0,0,0,0,0,0,0,50.1444966973,14.3690297374,5016.220703,-3.117127,4.561545,240.305405,2.442978,90.479652,0.056416,0.150076,-8.827808,-132.744324,-82.534035,156.404861,-6.125272,3.294326,8.827808,1.053540,0.000000,0.000000,0.000000,0.418925,-1.188607,-33.981964,0.115237,0.000000,0.037815,0.037815,-0.058339,1.000000,2137.944580
0.010822,0.027000,0.000000,0.115258,-0.074235,0.015885,0.000000,0.000000,0.000000,0.775761,0.000000,0.000000,0.000000,0.000000,0.000000,1.000000,1.000000,1.000000,1.000000,1.000000,1.000000,3.000000,0.000000,0.000000,0.000000,0.000000,0.000000,0.000000,0.000000,1.000000,1.000000,1.000000,1.000000,1.000000,1.000000,0,0,0,0,0,0,0,0,0,0,0,0,0,50.1444910412,14.3690155946,5016.435547,-3.236313,4.574775,240.283676,2.428782,90.445610,0.056692,0.150019,-8.868047,-132.656860,-82.575584,156.354279,-6.151807,3.272219,8.868047,1.053351,0.000000,0.000000,0.000000,0.424888,-1.170096,-33.975288,0.115237,0.000000,0.037815,0.037815,-0.058339,1.000000,2137.757568
0.010822,0.027000,0.000000,0.115258,-0.074235,0.015885,0.000000,0.000000,0.000000,0.775761,0.000000,0.000000,0.000000,0.000000,0.000000,1.000000,1.000000,1.000000,1.000000,1.000000,1.000000,3.000000,0.000000,0.000000,0.000000,0.000000,0.000000,0.000000,0.000000,1.000000,1.000000,1.000000,1.000000,1.000000,1.000000,0,0,0,0,0,0,0,0,0,0,0,0,0,50.1444853821,14.3690014612,5016.650879,-3.355415,4.587847,240.266174,2.409910,90.411804,0.056965,0.149961,-8.907849,-132.568771,-82.618225,156.303268,-6.191069,3.249222,8.907849,1.052964,0.000000,0.000000,0.000000,0.432505,-1.146154,-33.962158,0.115237,0.000000,0.037815,0.037815,-0.058339,1.000000,2137.569336
0.010822,0.027000,0.000000,0.115258,-0.074235,0.015885,0.000000,0.000000,0.000000,0.775761,0.000000,0.000000,0.000000,0.000000,0.000000,1.000000,1.000000,1.000000,1.000000,1.000000,1.000000,3.000000,0.000000,0.000000,0.000000,0.000000,0.000000,0.000000,0.000000,1.000000,1.000000,1.000000,1.000000,1.000000,1.000000,0,0,0,0,0,0,0,0,0,0,0,0,0,50.1444816077,14.3689920442,5016.795410,-3.434640,4.596483,240.256805,2.394781,90.389473,0.057145,0.149923,-8.934158,-132.509689,-82.647263,156.269043,-6.224177,3.233387,8.934158,1.052698,0.000000,0.000000,0.000000,0.437673,-1.129874,-33.953171,0.115237,0.000000,0.037815,0.037815,-0.058339,1.000000,2137.443359
0.010822,0.027000,0.000000,0.115258,-0.074235,0.015885,0.000000,0.000000,0.000000,0.775761,0.000000,0.000000,0.000000,0.000000,0.000000,1.000000,1.000000,1.000000,1.000000,1.000000,1.000000,3.000000,0.000000,0.000000,0.000000,0.000000,0.000000,0.000000,0.000000,1.000000,1.000000,1.000000,1.000000,1.000000,1.000000,0,0,0,0,0,0,0,0,0,0,0,0,0,50.1444797200,14.3689873373,5016.867676,-3.474172,4.600779,240.252808,2.386464,90.378372,0.057235,0.149904,-8.947248,-132.480057,-82.661964,156.251862,-6.242778,3.225317,8.947248,1.052615,0.000000,0.000000,0.000000,0.439993,-1.122863,-33.950352,0.115237,0.000000,0.037815,0.037815,-0.058339,1.000000,2137.380371
0.010822,0.027000,0.000000,0.115258,-0.074235,0.015885,0.000000,0.000000,0.000000,0.775761,0.000000,0.000000,0.000000,0.000000,0.000000,1.000000,1.000000,1.000000,1.000000,1.000000,1.000000,3.000000,0.000000,0.000000,0.000000,0.000000,0.000000,0.000000,0.000000,1.000000,1.000000,1.000000,1.000000,1.000000,1.000000,0,0,0,0,0,0,0,0,0,0,0,0,0,50.1444740550,14.3689732228,5017.084961,-3.592343,4.613589,240.243469,2.358593,90.345169,0.057502,0.149846,-8.986089,-132.390823,-82.706696,156.200073,-6.306509,3.200687,8.986089,1.052069,0.000000,0.000000,0.000000,0.449103,-1.094354,-33.932129,0.115237,0.000000,0.037815,0.037815,-0.058339,1.000000,2137.189941
0.010822,0.027000,0.000000,0.115258,-0.070329,0.015885,0.000000,0.000000,0.000000,0.775761,0.000000,0.000000,0.000000,0.000000,0.000000,1.000000,1.000000,1.000000,1.000000,1.000000,1.000000,3.000000,0.000000,0.000000,0.000000,0.000000,0.000000,0.000000,0.000000,1.000000,1.000000,1.000000,1.000000,1.000000,1.000000,0,0,0,0,0,0,0,0,0,0,0,0,0,50.1444683868,14.3689591180,5017.303711,-3.709680,4.626296,240.238068,2.326418,90.312340,0.057766,0.149789,-9.024412,-132.301102,-82.752434,156.147919,-6.381926,3.175320,9.024412,1.051570,0.000000,0.000000,0.000000,0.458065,-1.066709,-33.915535,0.115237,0.000000,0.037815,0.037815,-0.054434,1.000000,2136.999023
0.010822,0.027000,0.000000,0.115258,-0.074235,0.015885,0.000000,0.000000,0.000000,0.775761,0.000000,0.000000,0.000000,0.000000,0.000000,1.000000,1.000000,1.000000,1.000000,1.000000,1.000000,3.000000,0.000000,0.000000,0.000000,0.000000,0.000000,0.000000,0.000000,1.000000,1.000000,1.000000,1.000000,1.000000,1.000000,0,0,0,0,0,0,0,0,0,0,0,0,0,50.1444627155,14.3689450227,5017.522949,-3.825967,4.638919,240.236496,2.290034,90.279747,0.058026,0.149731,-9.062060,-132.210922,-82.799187,156.095444,-6.468760,3.149406,9.062060,1.050878,0.000000,0.000000,0.000000,0.468622,-1.033873,-33.892601,0.115237,0.000000,0.037815,0.037815,-0.058339,1.000000,2136.807129
0.010822,0.027000,0.000000,0.115258,-0.074235,0.015885,0.000000,0.000000,0.000000,0.775761,0.000000,0.000000,0.000000,0.000000,0.000000,1.000000,1.000000,1.000000,1.000000,1.000000,1.000000,3.000000,0.000000,0.000000,0.000000,0.000000,0.000000,0.000000,0.000000,1.000000,1.000000,1.000000,1.000000,1.000000,1.000000,0,0,0,0,0,0,0,0,0,0,0,0,0,50.1444589328,14.3689356313,5017.669922,-3.902788,4.647299,240.237518,2.263573,90.258217,0.058197,0.149693,-9.086820,-132.150635,-82.830780,156.060287,-6.532621,3.131822,9.086820,1.050417,0.000000,0.000000,0.000000,0.475724,-1.012041,-33.877399,0.115237,0.000000,0.037815,0.037815,-0.058339,1.000000,2136.678711
0.010822,0.027000,0.000000,0.115258,-0.074235,0.015885,0.000000,0.000000,0.000000,0.775761,0.000000,0.000000,0.000000,0.000000,0.000000,1.000000,1.000000,1.000000,1.000000,1.000000,1.000000,3.000000,0.000000,0.000000,0.000000,0.000000,0.000000,0.000000,0.000000,1.000000,1.000000,1.000000,1.000000,1.000000,1.000000,0,0,0,0,0,0,0,0,0,0,0,0,0,50.1444570409,14.3689309371,5017.743652,-3.940961,4.651480,240.238632,2.249691,90.247505,0.058281,0.149674,-9.099100,-132.120422,-82.846725,156.042648,-6.566319,3.122937,9.099100,1.050243,0.000000,0.000000,0.000000,0.479013,-1.002323,-33.871662,0.115237,0.000000,0.037815,0.037815,-0.058339,1.000000,2136.614746
0.010822,0.027000,0.000000,0.115258,-0.070329,0.015885,0.000000,0.000000,0.000000,0.775761,0.000000,0.000000,0.000000,0.000000,0.000000,1.000000,1.000000,1.000000,1.000000,1.000000,1.000000,3.000000,0.000000,0.000000,0.000000,0.000000,0.000000,0.000000,0.000000,1.000000,1.000000,1.000000,1.000000,1.000000,1.000000,0,0,0,0,0,0,0,0,0,0,0,0,0,50.1444513630,14.3689168612,5017.964844,-4.054449,4.663993,240.244308,2.205409,90.215492,0.058532,0.149617,-9.135357,-132.029510,-82.895363,155.989594,-6.674552,3.096112,9.135357,1.049420,0.000000,0.000000,0.000000,0.491271,-0.982256,-33.844715,0.115237,0.000000,0.037815,0.037815,-0.054434,1.000000,2136.421631
0.010822,0.027000,0.000000,0.115258,-0.070329,0.015885,0.000000,0.000000,0.000000,0.775761,0.000000,0.000000,0.000000,0.000000,0.000000,1.000000,1.000000,1.000000,1.000000,1.000000,1.000000,3.000000,0.000000,0.000000,0.000000,0.000000,0.000000,0.000000,0.000000,1.000000,1.000000,1.000000,1.000000,1.000000,1.000000,0,0,0,0,0,0,0,0,0,0,0,0,0,50.1444456818,14.3689027951,5018.187012,-4.166259,4.676484,240.253479,2.157346,90.183823,0.058779,0.149560,-9.170907,-131.938324,-82.944855,155.936234,-6.793012,3.068912,9.170907,1.048666,0.000000,0.000000,0.000000,0.503037,-0.946668,-33.819908,0.115237,0.000000,0.037815,0.037815,-0.054434,1.000000,2136.228027
0.010822,0.027000,0.000000,0.115258,-0.070329,0.015885,0.000000,0.000000,0.000000,0.775761,0.000000,0.000000,0.000000,0.000000,0.000000,1.000000,1.000000,1.000000,1.000000,1.000000,1.000000,3.000000,0.000000,0.000000,0.000000,0.000000,0.000000,0.000000,0.000000,1.000000,1.000000,1.000000,1.000000,1.000000,1.000000,0,0,0,0,0,0,0,0,0,0,0,0,0,50.1444399972,14.3688887387,5018.410156,-4.276190,4.688968,240.266006,2.105717,90.152359,0.059020,0.149504,-9.205618,-131.846985,-82.995033,155.882629,-6.921101,3.041538,9.205618,1.047729,0.000000,0.000000,0.000000,0.516346,-0.906572,-33.789101,0.115237,0.000000,0.037815,0.037815,-0.054434,1.000000,2136.034180
0.010822,0.027000,0.000000,0.115258,-0.070329,0.015885,0.000000,0.000000,0.000000,0.775761,0.000000,0.000000,0.000000,0.000000,0.000000,1.000000,1.000000,1.000000,1.000000,1.000000,1.000000,3.000000,0.000000,0.000000,0.000000,0.000000,0.000000,0.000000,0.000000,1.000000,1.000000,1.000000,1.000000,1.000000,1.000000,0,0,0,0,0,0,0,0,0,0,0,0,0,50.1444362055,14.3688793731,5018.559082,-4.348328,4.697296,240.276154,2.069402,90.131561,0.059178,0.149466,-9.228327,-131.786026,-83.028870,155.846741,-7.011611,3.023186,9.228327,1.047117,0.000000,0.000000,0.000000,0.525262,-0.880027,-33.769012,0.115237,0.000000,0.037815,0.037815,-0.054434,1.000000,2135.904785
0.010822,0.027000,0.000000,0.115258,-0.070329,0.015885,0.000000,0.000000,0.000000,0.775761,0.000000,0.000000,0.000000,0.000000,0.000000,1.000000,1.000000,1.000000,1.000000,1.000000,1.000000,3.000000,0.000000,0.000000,0.000000,0.000000,0.000000,0.000000,0.000000,1.000000,1.000000,1.000000,1.000000,1.000000,1.000000,0,0,0,0,0,0,0,0,0,0,0,0,0,50.1444343091,14.3688746920,5018.633789,-4.384031,4.701462,240.281738,2.050694,90.121216,0.059256,0.149447,-9.239559,-131.755508,-83.045898,155.828766,-7.058347,3.013978,9.239559,1.046874,0.000000,0.000000,0.000000,0.529456,-0.868025,-33.761044,0.115237,0.000000,0.037815,0.037815,-0.054434,1.000000,2135.840088
0.010822,0.027000,0.000000,0.115258,-0.070329,0.015885,0.000000,0.000000,0.000000,0.775761,0.000000,0.000000,0.000000,0.000000,0.000000,1.000000,1.000000,1.000000,1.000000,1.000000,1.000000,3.000000,0.000000,0.000000,0.000000,0.000000,0.000000,0.000000,0.000000,1.000000,1.000000,1.000000,1.000000,1.000000,1.000000,0,0,0,0,0,0,0,0,0,0,0,0,0,50.1444286175,14.3688606551,5018.858887,-4.489593,4.713978,240.300507,1.992495,90.090248,0.059486,0.149391,-9.272598,-131.664017,-83.097351,155.774673,-7.204151,2.986436,9.272598,1.045842,0.000000,0.000000,0.000000,0.544066,-0.825242,-33.727169,0.115237,0.000000,0.037815,0.037815,-0.054434,1.000000,2135.645508
0.010822,0.027000,0.000000,0.115258,-0.070329,0.015885,0.000000,0.000000,0.000000,0.775761,0.000000,0.000000,0.000000,0.000000,0.000000,1.000000,1.000000,1.000000,1.000000,1.000000,1.000000,3.000000,0.000000,0.000000,0.000000,0.000000,0.000000,0.000000,0.000000,1.000000,1.000000,1.000000,1.000000,1.000000,1.000000,0,0,0,0,0,0,0,0,0,0,0,0,0,50.1444229224,14.3688466280,5019.083984,-4.592687,4.726527,240.322113,1.931303,90.059586,0.059712,0.149335,-9.304816,-131.572510,-83.149384,155.720352,-7.358010,2.958895,9.304816,1.044904,0.000000,0.000000,0.000000,0.558435,-0.784266,-33.696426,0.115237,0.000000,0.037815,0.037815,-0.054434,1.000000,2135.451172
0.010822,0.027000,0.000000,0.115258,-0.070329,0.015885,0.000000,0.000000,0.000000,0.775761,0.000000,0.000000,0.000000,0.000000,0.000000,1.000000,1.000000,1.000000,1.000000,1.000000,1.000000,3.000000,0.000000,0.000000,0.000000,0.000000,0.000000,0.000000,0.000000,1.000000,1.000000,1.000000,1.000000,1.000000,1.000000,0,0,0,0,0,0,0,0,0,0,0,0,0,50.1444172236,14.3688326107,5019.310547,-4.693144,4.739116,240.346405,1.867347,90.029060,0.059931,0.149279,-9.336085,-131.481079,-83.201897,155.665863,-7.519295,2.931553,9.336085,1.043794,0.000000,0.000000,0.000000,0.574256,-0.739335,-33.660053,0.115237,0.000000,0.037815,0.037815,-0.054434,1.000000,2135.256348
0.010822,0.027000,0.000000,0.115258,-0.070329,0.015885,0.000000,0.000000,0.000000,0.775761,0.000000,0.000000,0.000000,0.000000,0.000000,1.000000,1.000000,1.000000,1.000000,1.000000,1.000000,3.000000,0.000000,0.000000,0.000000,0.000000,0.000000,0.000000,0.000000,1.000000,1.000000,1.000000,1.000000,1.000000,1.000000,0,0,0,0,0,0,0,0,0,0,0,0,0,50.1444134225,14.3688232712,5019.461914,-4.758567,4.747534,240.363983,1.823270,90.008865,0.060074,0.149242,-9.356450,-131.420181,-83.237167,155.629425,-7.630686,2.913424,9.356450,1.043078,0.000000,0.000000,0.000000,0.584794,-0.709859,-33.636631,0.115237,0.000000,0.037815,0.037815,-0.054434,1.000000,2135.126709
0.010822,0.027000,0.000000,0.115258,-0.070329,0.015885,0.000000,0.000000,0.000000,0.775761,0.000000,0.000000,0.000000,0.000000,0.000000,1.000000,1.000000,1.000000,1.000000,1.000000,1.000000,3.000000,0.000000,0.000000,0.000000,0.000000,0.000000,0.000000,0.000000,1.000000,1.000000,1.000000,1.000000,1.000000,1.000000,0,0,0,0,0,0,0,0,0,0,0,0,0,50.1444115213,14.3688186031,5019.537598,-4.790797,4.751751,240.373169,1.800821,89.998810,0.060144,0.149224,-9.366497,-131.389740,-83.254875,155.611176,-7.687483,2.904386,9.366497,1.042790,0.000000,0.000000,0.000000,0.589786,-0.696470,-33.627186,0.115237,0.000000,0.037815,0.037815,-0.054434,1.000000,2135.062012
0.010822,0.027000,0.000000,0.115258,-0.070329,0.015885,0.000000,0.000000,0.000000,0.775761,0.000000,0.000000,0.000000,0.000000,0.000000,1.000000,1.000000,1.000000,1.000000,1.000000,1.000000,3.000000,0.000000,0.000000,0.000000,0.000000,0.000000,0.000000,0.000000,1.000000,1.000000,1.000000,1.000000,1.000000,1.000000,0,0,0,0,0,0,0,0,0,0,0,0,0,50.1444058153,14.3688046053,5019.765625,-4.885501,4.764436,240.402237,1.731960,89.968674,0.060351,0.149169,-9.395928,-131.298599,-83.308235,155.556351,-7.861925,2.877587,9.395928,1.041620,0.000000,0.000000,0.000000,0.606714,-0.649933,-33.588871,0.115237,0.000000,0.037815,0.037815,-0.054434,1.000000,2134.867188
0.010822,0.027000,0.000000,0.115258,-0.070329,0.015885,0.000000,0.000000,0.000000,0.775761,0.000000,0.000000,0.000000,0.000000,0.000000,1.000000,1.000000,1.000000,1.000000,1.000000,1.000000,3.000000,0.000000,0.000000,0.000000,0.000000,0.000000,0.000000,0.000000,1.000000,1.000000,1.000000,1.000000,1.000000,1.000000,0,0,0,0,0,0,0,0,0,0,0,0,0,50.1444001057,14.3687906171,5019.994141,-4.977109,4.777169,240.433411,1.660965,89.938789,0.060553,0.149114,-9.424479,-131.207626,-83.361954,155.501373,-8.042079,2.851122,9.424479,1.040568,0.000000,0.000000,0.000000,0.623290,-0.605723,-33.554409,0.115237,0.000000,0.037815,0.037815,-0.054434,1.000000,2134.672852
0.010822,0.027000,0.000000,0.115258,-0.070329,0.015885,0.000000,0.000000,0.000000,0.775761,0.000000,0.000000,0.000000,0.000000,0.000000,1.000000,1.000000,1.000000,1.000000,1.000000,1.000000,3.000000,0.000000,0.000000,0.000000,0.000000,0.000000,0.000000,0.000000,1.000000,1.000000,1.000000,1.000000,1.000000,1.000000,0,0,0,0,0,0,0,0,0,0,0,0,0,50.1443943923,14.3687766387,5020.223145,-5.065500,4.789948,240.466492,1.588077,89.908981,0.060748,0.149060,-9.452030,-131.116959,-83.415947,155.446289,-8.227285,2.825178,9.452030,1.039354,0.000000,0.000000,0.000000,0.641202,-0.558123,-33.514668,0.115237,0.000000,0.037815,0.037815,-0.054434,1.000000,2134.478271
0.010822,0.027000,0.000000,0.115258,-0.070329,0.015885,0.000000,0.000000,0.000000,0.775761,0.000000,0.000000,0.000000,0.000000,0.000000,1.000000,1.000000,1.000000,1.000000,1.000000,1.000000,3.000000,0.000000,0.000000,0.000000,0.000000,0.000000,0.000000,0.000000,1.000000,1.000000,1.000000,1.000000,1.000000,1.000000,0,0,0,0,0,0,0,0,0,0,0,0,0,50.1443905814,14.3687673251,5020.376465,-5.122578,4.798490,240.489502,1.538534,89.889236,0.060875,0.149024,-9.469896,-131.056656,-83.452087,155.409500,-8.353292,2.808149,9.469896,1.038580,0.000000,0.000000,0.000000,0.653062,-0.527161,-33.489334,0.115237,0.000000,0.037815,0.037815,-0.054434,1.000000,2134.348877
0.010822,0.027000,0.000000,0.115258,-0.070329,0.015885,0.000000,0.000000,0.000000,0.775761,0.000000,0.000000,0.000000,0.000000,0.000000,1.000000,1.000000,1.000000,1.000000,1.000000,1.000000,3.000000,0.000000,0.000000,0.000000,0.000000,0.000000,0.000000,0.000000,1.000000,1.000000,1.000000,1.000000,1.000000,1.000000,0,0,0,0,0,0,0,0,0,0,0,0,0,50.1443886753,14.3687626699,5020.453125,-5.150550,4.802767,240.501282,1.513500,89.879402,0.060937,0.149006,-9.478691,-131.026550,-83.470200,155.391098,-8.416994,2.799709,9.478691,1.038268,0.000000,0.000000,0.000000,0.658694,-0.513107,-33.479103,0.115237,0.000000,0.037815,0.037815,-0.054434,1.000000,2134.284180
0.010822,0.027000,0.000000,0.115258,-0.070329,0.015885,0.000000,0.000000,0.000000,0.775761,0.000000,0.000000,0.000000,0.000000,0.000000,1.000000,1.000000,1.000000,1.000000,1.000000,1.000000,3.000000,0.000000,0.000000,0.000000,0.000000,0.000000,0.000000,0.000000,1.000000,1.000000,1.000000,1.000000,1.000000,1.000000,0,0,0,0,0,0,0,0,0,0,0,0,0,50.1443829545,14.3687487108,5020.683594,-5.232160,4.815618,240.537582,1.437478,89.849876,0.061120,0.148952,-9.504347,-130.936523,-83.524620,155.335861,-8.610537,2.774895,9.504347,1.037025,0.000000,0.000000,0.000000,0.677452,-0.464978,-33.438412,0.115237,0.000000,0.037815,0.037815,-0.054434,1.000000,2134.090088
0.010822,0.027000,0.000000,0.115258,-0.070329,0.015885,0.000000,0.000000,0.000000,0.775761,0.000000,0.000000,0.000000,0.000000,0.000000,1.000000,1.000000,1.000000,1.000000,1.000000,1.000000,3.000000,0.000000,0.000000,0.000000,0.000000,0.000000,0.000000,0.000000,1.000000,1.000000,1.000000,1.000000,1.000000,1.000000,0,0,0,0,0,0,0,0,0,0,0,0,0,50.1443772300,14.3687347612,5020.914551,-5.310231,4.828489,240.575180,1.360217,89.820549,0.061297,0.148899,-9.529113,-130.846863,-83.579208,155.280563,-8.807363,2.750678,9.529113,1.035919,0.000000,0.000000,0.000000,0.695712,-0.419683,-33.402187,0.115237,0.000000,0.037815,0.037815,-0.054434,1.000000,2133.896484
0.010822,0.027000,0.000000,0.115258,-0.070329,0.015885,0.000000,0.000000,0.000000,0.775761,0.000000,0.000000,0.000000,0.000000,0.000000,1.000000,1.000000,1.000000,1.000000,1.000000,1.000000,3.000000,0.000000,0.000000,0.000000,0.000000,0.000000,0.000000,0.000000,1.000000,1.000000,1.000000,1.000000,1.000000,1.000000,0,0,0,0,0,0,0,0,0,0,0,0,0,50.1443715018,14.3687208212,5021.146484,-5.384686,4.841366,240.613892,1.281961,89.791260,0.061468,0.148846,-9.552876,-130.757645,-83.633865,155.225266,-9.006805,2.727229,9.552876,1.034660,0.000000,0.000000,0.000000,0.715162,-0.371546,-33.360958,0.115237,0.000000,0.037815,0.037815,-0.054434,1.000000,2133.702881
0.010822,0.027000,0.000000,0.115258,-0.070329,0.015885,0.000000,0.000000,0.000000,0.775761,0.000000,0.000000,0.000000,0.000000,0.000000,1.000000,1.000000,1.000000,1.000000,1.000000,1.000000,3.000000,0.000000,0.000000,0.000000,0.000000,0.000000,0.000000,0.000000,1.000000,1.000000,1.000000,1.000000,1.000000,1.000000,0,0,0,0,0,0,0,0,0,0,0,0,0,50.1443676809,14.3687115331,5021.301270,-5.432275,4.849946,240.640213,1.229339,89.771835,0.061578,0.148811,-9.568222,-130.698410,-83.670341,155.188400,-9.140949,2.711989,9.568222,1.033863,0.000000,0.000000,0.000000,0.727956,-0.340505,-33.334904,0.115237,0.000000,0.037815,0.037815,-0.054434,1.000000,2133.573975
0.010822,0.027000,0.000000,0.115258,-0.070329,0.015885,0.000000,0.000000,0.000000,0.775761,0.000000,0.000000,0.000000,0.000000,0.000000,1.000000,1.000000,1.000000,1.000000,1.000000,1.000000,3.000000,0.000000,0.000000,0.000000,0.000000,0.000000,0.000000,0.000000,1.000000,1.000000,1.000000,1.000000,1.000000,1.000000,0,0,0,0,0,0,0,0,0,0,0,0,0,50.1443657698,14.3687068907,5021.378906,-5.455449,4.854233,240.653503,1.202915,89.762146,0.061633,0.148794,-9.575760,-130.668854,-83.688591,155.169968,-9.208316,2.704478,9.575760,1.033545,0.000000,0.000000,0.000000,0.734026,-0.326483,-33.324455,0.115237,0.000000,0.037815,0.037815,-0.054434,1.000000,2133.509766
0.010822,0.027000,0.000000,0.115258,-0.070329,0.015885,0.000000,0.000000,0.000000,0.775761,0.000000,0.000000,0.000000,0.000000,0.000000,1.000000,1.000000,1.000000,1.000000,1.000000,1.000000,3.000000,0.000000,0.000000,0.000000,0.000000,0.000000,0.000000,0.000000,1.000000,1.000000,1.000000,1.000000,1.000000,1.000000,0,0,0,0,0,0,0,0,0,0,0,0,0,50.1443600340,14.3686929696,5021.611816,-5.522466,4.867070,240.693817,1.123320,89.733055,0.061791,0.148742,-9.597652,-130.580597,-83.743301,155.114731,-9.411238,2.682588,9.597652,1.032280,0.000000,0.000000,0.000000,0.753998,-0.278838,-33.283051,0.115237,0.000000,0.037815,0.037815,-0.054434,1.000000,2133.316650
0.010822,0.027000,0.000000,0.115258,-0.070329,0.015885,0.000000,0.000000,0.000000,0.775761,0.000000,0.000000,0.000000,0.000000,0.000000,1.000000,1.000000,1.000000,1.000000,1.000000,1.000000,3.000000,0.000000,0.000000,0.000000,0.000000,0.000000,0.000000,0.000000,1.000000,1.000000,1.000000,1.000000,1.000000,1.000000,0,0,0,0,0,0,0,0,0,0,0,0,0,50.1443542946,14.3686790578,5021.845215,-5.585685,4.879858,240.734634,1.043378,89.704132,0.061944,0.148690,-9.618681,-130.492813,-83.797989,155.059555,-9.615031,2.661476,9.618681,1.031167,0.000000,0.000000,0.000000,0.773289,-0.234495,-33.246586,0.115237,0.000000,0.037815,0.037815,-0.054434,1.000000,2133.124268
0.000009,0.027000,0.000000,0.115258,-0.070329,0.015885,0.000000,0.000000,0.000000,0.775761,0.000000,0.000000,0.000000,0.000000,0.000000,1.000000,1.000000,1.000000,1.000000,1.000000,1.000000,3.000000,0.000000,0.000000,0.000000,0.000000,0.000000,0.000000,0.000000,1.000000,1.000000,1.000000,1.000000,1.000000,1.000000,0,0,0,0,0,0,0,0,0,0,0,0,0,50.1443485513,14.3686651554,5022.079102,-5.645316,4.892571,240.775742,0.963332,89.675209,0.062090,0.148639,-9.638737,-130.405624,-83.852577,155.004501,-9.819028,2.641255,9.638737,1.029906,0.000000,0.000000,0.000000,0.793856,-0.235229,-33.211552,0.115237,0.000000,0.027004,0.027004,-0.054434,1.000000,2132.931885
0.000113,0.027000,0.000000,0.115258,-0.070329,0.015885,0.000000,0.000000,0.000000,0.775761,0.000000,0.000000,0.000000,0.000000,0.000000,1.000000,1.000000,1.000000,1.000000,1.000000,1.000000,3.000000,0.000000,0.000000,0.000000,0.000000,0.000000,0.000000,0.000000,1.000000,1.000000,1.000000,1.000000,1.000000,1.000000,0,0,0,0,0,0,0,0,0,0,0,0,0,50.1443447204,14.3686558923,5022.235352,-5.683928,4.900991,240.803162,0.910027,89.656021,0.062185,0.148605,-9.651631,-130.347809,-83.888901,154.967896,-9.954802,2.628077,9.651631,1.029114,0.000000,0.000000,0.000000,0.807038,-0.200260,-33.185040,0.115237,0.000000,0.027108,0.027108,-0.054434,1.000000,2132.803955
0.000452,0.027000,0.000000,0.115258,-0.070329,0.015885,0.000000,0.000000,0.000000,0.775761,0.000000,0.000000,0.000000,0.000000,0.000000,1.000000,1.000000,1.000000,1.000000,1.000000,1.000000,3.000000,0.000000,0.000000,0.000000,0.000000,0.000000,0.000000,0.000000,1.000000,1.000000,1.000000,1.000000,1.000000,1.000000,0,0,0,0,0,0,0,0,0,0,0,0,0,50.1443428044,14.3686512623,5022.313477,-5.702910,4.905182,240.816864,0.883411,89.646446,0.062231,0.148588,-9.657950,-130.318985,-83.907051,154.949615,-10.022570,2.621562,9.657950,1.028802,0.000000,0.000000,0.000000,0.813272,-0.184749,-33.174561,0.115237,0.000000,0.027447,0.027447,-0.054434,1.000000,2132.739990
0.000747,0.027000,0.000008,0.115258,-0.070329,0.015885,0.000000,0.000000,0.000000,0.775761,0.000000,0.000000,0.000000,0.000000,0.000000,1.000000,1.000000,1.000000,1.000000,1.000000,1.000000,3.000000,0.000000,0.000000,0.000000,0.000000,0.000000,0.000000,0.000000,1.000000,1.000000,1.000000,1.000000,1.000000,1.000000,0,0,0,0,0,0,0,0,0,0,0,0,0,50.1443370537,14.3686373784,5022.548340,-5.758419,4.917667,240.857819,0.803820,89.617676,0.062366,0.148538,-9.676218,-130.232956,-83.961365,154.894928,-10.225102,2.602530,9.676218,1.027562,0.000000,0.000000,0.000000,0.833678,-0.130794,-33.132908,0.115244,0.000000,0.027742,0.027742,-0.054434,1.000000,2132.548340
0.002513,0.027000,0.000069,0.115258,-0.070329,0.015885,0.000000,0.000000,0.000000,0.775761,0.000000,0.000000,0.000000,0.000000,0.000000,1.000000,1.000000,1.000000,1.000000,1.000000,1.000000,3.000000,0.000000,0.000000,0.000000,0.000000,0.000000,0.000000,0.000000,1.000000,1.000000,1.000000,1.000000,1.000000,1.000000,0,0,0,0,0,0,0,0,0,0,0,0,0,50.1443312993,14.3686235036,5022.783691,-5.811512,4.930002,240.898468,0.724719,89.589058,0.062495,0.148488,-9.693687,-130.147491,-84.015549,154.840454,-10.426211,2.584070,9.693687,1.026508,0.000000,0.000000,0.000000,0.853545,-0.080790,-33.097164,0.115306,0.000000,0.029507,0.029507,-0.054434,1.000000,2132.357422
0.004069,0.027000,0.000069,0.115258,-0.070329,0.015885,0.000000,0.000000,0.000000,0.775761,0.000000,0.000000,0.000000,0.000000,0.000000,1.000000,1.000000,1.000000,1.000000,1.000000,1.000000,3.000000,0.000000,0.000000,0.000000,0.000000,0.000000,0.000000,0.000000,1.000000,1.000000,1.000000,1.000000,1.000000,1.000000,0,0,0,0,0,0,0,0,0,0,0,0,0,50.1443255411,14.3686096378,5023.019043,-5.861804,4.942150,240.938614,0.646302,89.560432,0.062618,0.148438,-9.710233,-130.062653,-84.069542,154.786270,-10.625381,2.566364,9.710233,1.025281,0.000000,0.000000,0.000000,0.873812,-0.022737,-33.055183,0.115306,0.000000,0.031063,0.031063,-0.054434,1.000000,2132.166504
0.004672,0.027000,0.000069,0.115258,-0.070329,0.015885,0.000000,0.000000,0.000000,0.775761,0.000000,0.000000,0.000000,0.000000,0.000000,1.000000,1.000000,1.000000,1.000000,1.000000,1.000000,3.000000,0.000000,0.000000,0.000000,0.000000,0.000000,0.000000,0.000000,1.000000,1.000000,1.000000,1.000000,1.000000,1.000000,0,0,0,0,0,0,0,0,0,0,0,0,0,50.1443217003,14.3686003990,5023.176758,-5.893514,4.950131,240.965057,0.594481,89.541435,0.062697,0.148406,-9.720812,-130.006424,-84.105446,154.750290,-10.756890,2.554969,9.720812,1.024514,0.000000,0.000000,0.000000,0.886978,0.008746,-33.029648,0.115306,0.000000,0.031666,0.031666,-0.054434,1.000000,2132.039551
0.005098,0.027000,0.000069,0.115258,-0.070329,0.015885,0.000000,0.000000,0.000000,0.775761,0.000000,0.000000,0.000000,0.000000,0.000000,1.000000,1.000000,1.000000,1.000000,1.000000,1.000000,3.000000,0.000000,0.000000,0.000000,0.000000,0.000000,0.000000,0.000000,1.000000,1.000000,1.000000,1.000000,1.000000,1.000000,0,0,0,0,0,0,0,0,0,0,0,0,0,50.1443197793,14.3685957811,5023.255371,-5.908798,4.954084,240.978149,0.568726,89.531960,0.062736,0.148389,-9.725980,-129.978409,-84.123375,154.732361,-10.822216,2.549387,9.725980,1.024216,0.000000,0.000000,0.000000,0.893167,0.021316,-33.019814,0.115306,0.000000,0.032092,0.032092,-0.054434,1.000000,2131.976318
0.006481,0.027000,0.000191,0.115258,-0.070329,0.015885,0.000000,0.000000,0.000000,0.775761,0.000000,0.000000,0.000000,0.000000,0.000000,1.000000,1.000000,1.000000,1.000000,1.000000,1.000000,3.000000,0.000000,0.000000,0.000000,0.000000,0.000000,0.000000,0.000000,1.000000,1.000000,1.000000,1.000000,1.000000,1.000000,0,0,0,0,0,0,0,0,0,0,0,0,0,50.1443140138,14.3685819333,5023.491699,-5.952281,4.965775,241.016876,0.492189,89.503487,0.062849,0.148341,-9.740851,-129.894806,-84.176979,154.678802,-11.016185,2.533273,9.740851,1.023050,0.000000,0.000000,0.000000,0.914007,0.071691,-32.980125,0.115428,0.000000,0.033474,0.033474,-0.054434,1.000000,2131.786377
0.007236,0.027000,0.000191,0.115258,-0.070329,0.015885,0.000000,0.000000,0.000000,0.775761,0.000000,0.000000,0.000000,0.000000,0.000000,1.000000,1.000000,1.000000,1.000000,1.000000,1.000000,3.000000,0.000000,0.000000,0.000000,0.000000,0.000000,0.000000,0.000000,1.000000,1.000000,1.000000,1.000000,1.000000,1.000000,0,0,0,0,0,0,0,0,0,0,0,0,0,50.1443082446,14.3685680944,5023.728516,-5.991975,4.977173,241.054657,0.416850,89.475174,0.062956,0.148293,-9.754943,-129.811798,-84.230377,154.625626,-11.206878,2.517931,9.754943,1.021987,0.000000,0.000000,0.000000,0.932969,0.108985,-32.945473,0.115428,0.000000,0.034230,0.034230,-0.054434,1.000000,2131.596924
0.007236,0.027000,0.000191,0.115258,-0.070329,0.015885,0.000000,0.000000,0.000000,0.775761,0.000000,0.000000,0.000000,0.000000,0.000000,1.000000,1.000000,1.000000,1.000000,1.000000,1.000000,3.000000,0.000000,0.000000,0.000000,0.000000,0.000000,0.000000,0.000000,1.000000,1.000000,1.000000,1.000000,1.000000,1.000000,0,0,0,0,0,0,0,0,0,0,0,0,0,50.1443024718,14.3685542643,5023.965820,-6.027855,4.988247,241.091324,0.342906,89.446869,0.063057,0.148245,-9.768130,-129.729462,-84.283485,154.572861,-11.393766,2.503517,9.768130,1.020770,0.000000,0.000000,0.000000,0.952564,0.150986,-32.905373,0.115428,0.000000,0.034230,0.034230,-0.054434,1.000000,2131.407715
0.007236,0.027000,0.000191,0.115258,-0.070329,0.015885,0.000000,0.000000,0.000000,0.775761,0.000000,0.000000,0.000000,0.000000,0.000000,1.000000,1.000000,1.000000,1.000000,1.000000,1.000000,3.000000,0.000000,0.000000,0.000000,0.000000,0.000000,0.000000,0.000000,1.000000,1.000000,1.000000,1.000000,1.000000,1.000000,0,0,0,0,0,0,0,0,0,0,0,0,0,50.1442986213,14.3685450490,5024.124023,-6.049630,4.995438,241.115067,0.294462,89.428093,0.063121,0.148213,-9.776484,-129.674927,-84.318748,154.537933,-11.516044,2.494375,9.776484,1.020008,0.000000,0.000000,0.000000,0.965135,0.174925,-32.880627,0.115428,0.000000,0.034230,0.034230,-0.054434,1.000000,2131.281982
0.007236,0.027000,0.000275,0.115258,-0.070329,0.015885,0.000000,0.000000,0.000000,0.775761,0.000000,0.000000,0.000000,0.000000,0.000000,1.000000,1.000000,1.000000,1.000000,1.000000,1.000000,3.000000,0.000000,0.000000,0.000000,0.000000,0.000000,0.000000,0.000000,1.000000,1.000000,1.000000,1.000000,1.000000,1.000000,0,0,0,0,0,0,0,0,0,0,0,0,0,50.1442966954,14.3685404429,5024.203125,-6.059884,4.998973,241.126709,0.270512,89.418732,0.063153,0.148197,-9.780542,-129.647751,-84.336342,154.520554,-11.576444,2.489931,9.780542,1.019713,0.000000,0.000000,0.000000,0.970980,0.185254,-32.871006,0.115512,0.000000,0.034230,0.034230,-0.054434,1.000000,2131.219238
0.007236,0.027000,0.000275,0.115258,-0.070329,0.015885,0.000000,0.000000,0.000000,0.775761,0.000000,0.000000,0.000000,0.000000,0.000000,1.000000,1.000000,1.000000,1.000000,1.000000,1.000000,3.000000,0.000000,0.000000,0.000000,0.000000,0.000000,0.000000,0.000000,1.000000,1.000000,1.000000,1.000000,1.000000,1.000000,0,0,0,0,0,0,0,0,0,0,0,0,0,50.1442909153,14.3685266301,5024.440918,-6.088151,5.009318,241.160645,0.199856,89.390602,0.063243,0.148150,-9.792095,-129.566711,-84.388855,154.468750,-11.754401,2.477257,9.792095,1.018535,0.000000,0.000000,0.000000,0.990456,0.220990,-32.832409,0.115512,0.000000,0.034230,0.034230,-0.054434,1.000000,2131.031006
0.007236,0.027000,0.000489,0.115258,-0.070329,0.015885,0.000000,0.000000,0.000000,0.775761,0.000000,0.000000,0.000000,0.000000,0.000000,1.000000,1.000000,1.000000,1.000000,1.000000,1.000000,3.000000,0.000000,0.000000,0.000000,0.000000,0.000000,0.000000,0.000000,1.000000,1.000000,1.000000,1.000000,1.000000,1.000000,0,0,0,0,0,0,0,0,0,0,0,0,0,50.1442851317,14.3685128260,5024.678711,-6.112742,5.019241,241.192993,0.131080,89.362648,0.063329,0.148104,-9.802903,-129.486313,-84.441071,154.417480,-11.927262,2.465338,9.802903,1.017520,0.000000,0.000000,0.000000,1.008682,0.252496,-32.799126,0.115725,0.000000,0.034230,0.034230,-0.054434,1.000000,2130.843262
0.007236,0.027000,0.000619,0.115258,-0.070329,0.015885,0.000000,0.000000,0.000000,0.775761,0.000000,0.000000,0.000000,0.000000,0.000000,1.000000,1.000000,1.000000,1.000000,1.000000,1.000000,3.000000,0.000000,0.000000,0.000000,0.000000,0.000000,0.000000,0.000000,1.000000,1.000000,1.000000,1.000000,1.000000,1.000000,0,0,0,0,0,0,0,0,0,0,0,0,0,50.1442793445,14.3684990303,5024.916992,-6.133756,5.028688,241.223618,0.064358,89.334732,0.063409,0.148058,-9.812901,-129.406601,-84.492905,154.366806,-12.094562,2.454164,9.812901,1.016396,0.000000,0.000000,0.000000,1.028175,0.285319,-32.761848,0.115855,0.000000,0.034230,0.034230,-0.054434,1.000000,2130.656006
