Aileron,Aileron_trim,Elevator,Elevator_Trim,Ruder,Rudder_trim,Flaps,Slats,Speedbrake,Throttle1,Throttle2,Starter1,Starter2,Fuel_pump1,Fuel_pump2,Cutoff1,Cutoff2,Mixture1,Mixture2,Propeller_pitch1,Propeller_pitch2,Magnetos1,Magnetos2,Ignition1,Ignition2,Brake_left,Brake_right,Brake_parking,Steering,Gear_down,Gear_position,Gear_position1,Gear_position2,Gear_position3,Gear_position4,Engine_pump1,Engine_pump2,Electric_pump1,Electric_pump2,Battery_switch,External_power,APU_Generator,Engage_autopilot,Heading_select,Altitude_select,Bank_angle_select,Vertical_speed_select,Speed_select,Latitude_deg,Longitude_deg,Altitude_ft,Roll_deg,Pitch_deg,Heading_deg,Side_slip_rad,Airspeed_kt,Glideslope,Mach,Speed_down_fps,Speed_east_fps,Speed_nort_fps,uBody_fps,vBody_fps,wBody_fps,Vertical_speed_fps,nlf_acceleration,ned_down_accel_fps_sec,ned_east_accel_fps_sec,ned_north_accel_fps_sec,pilot_x_accel_fps_sec,pilot_y_accel_fps_sec,pilot_z_accel_fps_sec,elevator_pos_norm,flap_pos_norm,left_aileron_pos_norm,right_aileron_pos_norm,rudder_pos_norm,engine_running,rpm
0.000000,0.027000,0.000000,0.000000,0.000000,0.000000,0.000000,0.000000,0.000000,0.000000,0.000000,0.000000,0.000000,0.000000,0.000000,1.000000,1.000000,1.000000,1.000000,1.000000,1.000000,3.000000,0.000000,0.000000,0.000000,0.000000,0.000000,0.000000,0.000000,1.000000,1.000000,1.000000,1.000000,1.000000,1.000000,0,0,0,0,0,0,0,0,0,0,0,0,0,50.1451720000,14.3707760000,5000.000000,0.000000,0.424000,240.000000,0.000000,0.000000,0.000000,0.000000,0.000000,0.000000,0.000000,0.000000,0.000000,0.000000,0.000000,0.000000,0.000000,0.000000,0.000000,0.000000,0.000000,-32.000000,0.000000,0.000000,0.000000,0.000000,0.000000,1.000000,3000.000000
-0.000000,0.027000,0.000000,0.000000,-0.000015,-0.000015,0.000000,0.000000,0.000000,0.000000,0.000000,0.000000,0.000000,0.000000,0.000000,1.000000,1.000000,1.000000,1.000000,1.000000,1.000000,3.000000,0.000000,0.000000,0.000000,0.999985,0.999985,0.000000,0.000000,1.000000,1.000000,1.000000,1.000000,1.000000,1.000000,0,0,0,0,0,0,0,0,0,0,0,0,0,50.1451720000,14.3707760000,5000.000000,0.000000,0.424000,240.000000,0.000000,0.000000,0.000000,0.000000,0.000000,0.000000,0.000000,0.000000,0.000000,0.000000,0.000000,0.000000,0.000000,0.000000,0.000000,0.000000,0.000000,-32.000000,0.000000,0.000000,0.000000,0.000000,0.000000,1.000000,3000.000000
-0.000000,0.027000,0.000094,0.000000,-0.000015,0.007950,0.000000,0.000000,0.000000,0.000000,0.000000,0.000000,0.000000,0.000000,0.000000,1.000000,1.000000,1.000000,1.000000,1.000000,1.000000,3.000000,0.000000,0.000000,0.000000,0.999985,0.999985,0.000000,0.000000,1.000000,1.000000,1.000000,1.000000,1.000000,1.000000,0,0,0,0,0,0,0,0,0,0,0,0,0,50.1451720000,14.3707760000,5000.000000,0.000000,0.424000,240.000000,0.000000,0.000000,0.000000,0.000000,0.000000,0.000000,0.000000,0.000000,0.000000,0.000000,0.000000,0.000000,0.000000,0.000000,0.000000,0.000000,0.000000,-32.000000,0.000000,0.000000,0.000000,0.000000,0.000000,1.000000,3000.000000
-0.000000,0.027000,0.000094,0.000000,-0.000015,0.015885,0.000000,0.000000,0.000000,0.000000,0.000000,0.000000,0.000000,0.000000,0.000000,1.000000,1.000000,1.000000,1.000000,1.000000,1.000000,3.000000,0.000000,0.000000,0.000000,0.999985,0.999985,0.000000,0.000000,1.000000,1.000000,1.000000,1.000000,1.000000,1.000000,0,0,0,0,0,0,0,0,0,0,0,0,0,50.1451720000,14.3707760000,5000.000000,0.000000,0.424000,240.000000,0.000000,0.000000,0.000000,0.000000,0.000000,0.000000,0.000000,0.000000,0.000000,0.000000,0.000000,0.000000,0.000000,0.000000,0.000000,0.000000,0.000000,-32.000000,0.000000,0.000000,0.000000,0.000000,0.000000,1.000000,3000.000000
-0.000000,0.027000,0.000094,0.000000,-0.000015,0.015885,0.000000,0.000000,0.000000,0.000000,0.000000,0.000000,0.000000,0.000000,0.000000,1.000000,1.000000,1.000000,1.000000,1.000000,1.000000,3.000000,0.000000,0.000000,0.000000,0.999985,0.999985,0.000000,0.000000,1.000000,1.000000,1.000000,1.000000,1.000000,1.000000,0,0,0,0,0,0,0,0,0,0,0,0,0,50.1451720000,14.3707760000,5000.000000,0.000000,0.424000,240.000000,0.000000,0.000000,0.000000,0.000000,0.000000,0.000000,0.000000,0.000000,0.000000,0.000000,0.000000,0.000000,0.000000,0.000000,0.000000,0.000000,0.000000,-32.000000,0.000000,0.000000,0.000000,0.000000,0.000000,1.000000,3000.000000
-0.000000,0.027000,0.000094,0.000000,-0.000015,0.015885,0.000000,0.000000,0.000000,0.000000,0.000000,0.000000,0.000000,0.000000,0.000000,1.000000,1.000000,1.000000,1.000000,1.000000,1.000000,3.000000,0.000000,0.000000,0.000000,0.999985,0.999985,0.000000,0.000000,1.000000,1.000000,1.000000,1.000000,1.000000,1.000000,0,0,0,0,0,0,0,0,0,0,0,0,0,50.1451720000,14.3707760000,5000.000000,0.000000,0.424000,240.000000,0.000000,0.000000,0.000000,0.000000,0.000000,0.000000,0.000000,0.000000,0.000000,0.000000,0.000000,0.000000,0.000000,0.000000,0.000000,0.000000,0.000000,-32.000000,0.000000,0.000000,0.000000,0.000000,0.000000,1.000000,3000.000000
-0.000000,0.027000,0.000094,0.000000,-0.000015,0.015885,0.000000,0.000000,0.000000,0.000000,0.000000,0.000000,0.000000,0.000000,0.000000,1.000000,1.000000,1.000000,1.000000,1.000000,1.000000,3.000000,0.000000,0.000000,0.000000,0.999985,0.999985,0.000000,0.000000,1.000000,1.000000,1.000000,1.000000,1.000000,1.000000,0,0,0,0,0,0,0,0,0,0,0,0,0,50.1451720000,14.3707760000,5000.000000,0.000000,0.424000,240.000000,0.000000,0.000000,0.000000,0.000000,0.000000,0.000000,0.000000,0.000000,0.000000,0.000000,0.000000,0.000000,0.000000,0.000000,0.000000,0.000000,0.000000,-32.000000,0.000000,0.000000,0.000000,0.000000,0.000000,1.000000,3000.000000
-0.000000,0.027000,0.000094,0.000000,-0.000015,0.015885,0.000000,0.000000,0.000000,0.000000,0.000000,0.000000,0.000000,0.000000,0.000000,1.000000,1.000000,1.000000,1.000000,1.000000,1.000000,3.000000,0.000000,0.000000,0.000000,0.999985,0.999985,0.000000,0.000000,1.000000,1.000000,1.000000,1.000000,1.000000,1.000000,0,0,0,0,0,0,0,0,0,0,0,0,0,50.1451720000,14.3707760000,5000.000000,0.000000,0.424000,240.000000,0.000000,0.000000,0.000000,0.000000,0.000000,0.000000,0.000000,0.000000,0.000000,0.000000,0.000000,0.000000,0.000000,0.000000,0.000000,0.000000,0.000000,-32.000000,0.000000,0.000000,0.000000,0.000000,0.000000,1.000000,3000.000000
-0.000000,0.027000,0.000094,0.000000,-0.000015,0.015885,0.000000,0.000000,0.000000,0.000000,0.000000,0.000000,0.000000,0.000000,0.000000,1.000000,1.000000,1.000000,1.000000,1.000000,1.000000,3.000000,0.000000,0.000000,0.000000,0.999985,0.999985,0.000000,0.000000,1.000000,1.000000,1.000000,1.000000,1.000000,1.000000,0,0,0,0,0,0,0,0,0,0,0,0,0,50.1451720000,14.3707760000,5000.000000,0.000000,0.424000,240.000000,0.000000,0.000000,0.000000,0.000000,0.000000,0.000000,0.000000,0.000000,0.000000,0.000000,0.000000,0.000000,0.000000,0.000000,0.000000,0.000000,0.000000,-32.000000,0.000000,0.000000,0.000000,0.000000,0.000000,1.000000,3000.000000
-0.000000,0.027000,0.000094,0.000000,-0.000015,0.015885,0.000000,0.000000,0.000000,0.000000,0.000000,0.000000,0.000000,0.000000,0.000000,1.000000,1.000000,1.000000,1.000000,1.000000,1.000000,3.000000,0.000000,0.000000,0.000000,0.999985,0.999985,0.000000,0.000000,1.000000,1.000000,1.000000,1.000000,1.000000,1.000000,0,0,0,0,0,0,0,0,0,0,0,0,0,50.1451720000,14.3707760000,5000.000000,0.000000,0.424000,240.000000,0.000000,0.000000,0.000000,0.000000,0.000000,0.000000,0.000000,0.000000,0.000000,0.000000,0.000000,0.000000,0.000000,0.000000,0.000000,0.000000,0.000000,-32.000000,0.000000,0.000000,0.000000,0.000000,0.000000,1.000000,3000.000000
-0.000000,0.027000,0.000094,0.000000,-0.000015,0.007950,0.000000,0.000000,0.000000,0.000000,0.000000,0.000000,0.000000,0.000000,0.000000,1.000000,1.000000,1.000000,1.000000,1.000000,1.000000,3.000000,0.000000,0.000000,0.000000,0.999985,0.999985,0.000000,0.000000,1.000000,1.000000,1.000000,1.000000,1.000000,1.000000,0,0,0,0,0,0,0,0,0,0,0,0,0,50.1451720000,14.3707760000,5000.000000,0.000000,0.424000,240.000000,0.000000,0.000000,0.000000,0.000000,0.000000,0.000000,0.000000,0.000000,0.000000,0.000000,0.000000,0.000000,0.000000,0.000000,0.000000,0.000000,0.000000,-32.000000,0.000000,0.000000,0.000000,0.000000,0.000000,1.000000,3000.000000
-0.000000,0.027000,0.000094,0.000000,-0.000015,0.007950,0.000000,0.000000,0.000000,0.000000,0.000000,0.000000,0.000000,0.000000,0.000000,1.000000,1.000000,1.000000,1.000000,1.000000,1.000000,3.000000,0.000000,0.000000,0.000000,0.999985,0.999985,0.000000,0.000000,1.000000,1.000000,1.000000,1.000000,1.000000,1.000000,0,0,0,0,0,0,0,0,0,0,0,0,0,50.1451720000,14.3707760000,5000.000000,0.000000,0.424000,240.000000,0.000000,0.000000,0.000000,0.000000,0.000000,0.000000,0.000000,0.000000,0.000000,0.000000,0.000000,0.000000,0.000000,0.000000,0.000000,0.000000,0.000000,-32.000000,0.000000,0.000000,0.000000,0.000000,0.000000,1.000000,3000.000000
-0.000000,0.027000,0.000094,0.000000,-0.000015,0.015885,0.000000,0.000000,0.000000,0.000000,0.000000,0.000000,0.000000,0.000000,0.000000,1.000000,1.000000,1.000000,1.000000,1.000000,1.000000,3.000000,0.000000,0.000000,0.000000,0.999985,0.999985,0.000000,0.000000,1.000000,1.000000,1.000000,1.000000,1.000000,1.000000,0,0,0,0,0,0,0,0,0,0,0,0,0,50.1451720000,14.3707760000,5000.000000,0.000000,0.424000,240.000000,0.000000,0.000000,0.000000,0.000000,0.000000,0.000000,0.000000,0.000000,0.000000,0.000000,0.000000,0.000000,0.000000,0.000000,0.000000,0.000000,0.000000,-32.000000,0.000000,0.000000,0.000000,0.000000,0.000000,1.000000,3000.000000
0.010822,0.027000,0.000094,0.115165,-0.008607,0.015885,0.000000,0.000000,0.000000,0.775761,0.000000,0.000000,0.000000,0.000000,0.000000,1.000000,1.000000,1.000000,1.000000,1.000000,1.000000,3.000000,0.000000,0.000000,0.000000,0.999985,0.999985,0.000000,0.000000,1.000000,1.000000,1.000000,1.000000,1.000000,1.000000,0,0,0,0,0,0,0,0,0,0,0,0,0,50.1451722712,14.3707758036,4999.987305,0.183368,1.997982,240.000000,-0.000881,88.644150,0.007400,0.146915,-1.192773,-139.573212,-80.601852,161.118469,-0.002479,4.427232,1.192773,0.997518,0.000000,0.000000,0.000000,1.068842,-0.028773,-32.167866,0.115237,0.000000,0.037815,0.037815,0.007277,1.000000,2122.174072
0.010822,0.027000,0.000094,0.115165,-0.008607,0.015885,0.000000,0.000000,0.000000,0.775761,0.000000,0.000000,0.000000,0.000000,0.000000,1.000000,1.000000,1.000000,1.000000,1.000000,1.000000,3.000000,0.000000,0.000000,0.000000,0.999985,0.999985,0.000000,0.000000,1.000000,1.000000,1.000000,1.000000,1.000000,1.000000,0,0,0,0,0,0,0,0,0,0,0,0,0,50.1449488924,14.3701866613,5002.632324,-3.366024,3.227687,245.314987,-1.358902,92.786079,0.029097,0.153824,-4.652624,-137.069168,-82.257019,158.906296,-17.718407,3.266564,4.652624,1.095397,0.000000,0.000000,0.000000,0.420345,1.148028,-35.306984,0.115237,0.000000,0.037815,0.037815,0.007277,1.000000,0.000000
0.010822,0.027000,0.000094,0.115165,-0.008607,0.015885,0.000000,0.000000,0.000000,0.775761,0.000000,0.000000,0.000000,0.000000,0.000000,1.000000,1.000000,1.000000,1.000000,1.000000,1.000000,3.000000,0.000000,0.000000,0.000000,0.999985,0.999985,0.000000,0.000000,1.000000,1.000000,1.000000,1.000000,1.000000,1.000000,0,0,0,0,0,0,0,0,0,0,0,0,0,50.1448326404,14.3698857693,5005.301758,-0.928865,3.822891,246.989258,-3.068023,92.095795,0.039398,0.152825,-6.261642,-136.183182,-81.780708,157.383118,-22.104906,3.883094,6.261642,1.096131,0.000000,0.000000,0.000000,0.200607,1.774186,-35.345131,0.115237,0.000000,0.037815,0.037815,0.007277,1.000000,2144.591309
0.010822,0.027000,0.000094,0.115165,-0.008607,0.015885,0.000000,0.000000,0.000000,0.775761,0.000000,0.000000,0.000000,0.000000,0.000000,1.000000,1.000000,1.000000,1.000000,1.000000,1.000000,3.000000,0.000000,0.000000,0.000000,0.999985,0.999985,0.000000,0.000000,1.000000,1.000000,1.000000,1.000000,1.000000,1.000000,0,0,0,0,0,0,0,0,0,0,0,0,0,50.1446116754,14.3693077088,5012.463379,2.412906,4.400842,243.168518,1.095189,91.034904,0.052584,0.150871,-8.251986,-135.041824,-79.659019,156.630371,-9.961200,4.201077,8.251986,1.036034,0.000000,0.000000,0.000000,0.612741,-0.903289,-33.437984,0.115237,0.000000,0.037815,0.037815,0.007277,1.000000,2140.203613
0.010822,0.027000,0.000094,0.115165,-0.008607,0.015885,0.000000,0.000000,0.000000,0.775761,0.000000,0.000000,0.000000,0.000000,0.000000,1.000000,1.000000,1.000000,1.000000,1.000000,1.000000,3.000000,0.000000,0.000000,0.000000,0.999985,0.999985,0.000000,0.000000,1.000000,1.000000,1.000000,1.000000,1.000000,1.000000,0,0,0,0,0,0,0,0,0,0,0,0,0,50.1445953115,14.3692645478,5013.066406,2.273486,4.455230,242.878067,1.375901,90.938034,0.053205,0.150729,-8.341881,-134.926483,-79.567741,156.539047,-9.148058,4.195861,8.341881,1.036830,0.000000,0.000000,0.000000,0.563320,-1.030442,-33.461464,0.115237,0.000000,0.037815,0.037815,0.007277,1.000000,2139.783203
0.010822,0.027000,0.000094,0.115165,-0.008607,0.015885,0.000000,0.000000,0.000000,0.775761,0.000000,0.000000,0.000000,0.000000,0.000000,1.000000,1.000000,1.000000,1.000000,1.000000,1.000000,3.000000,0.000000,0.000000,0.000000,0.999985,0.999985,0.000000,0.000000,1.000000,1.000000,1.000000,1.000000,1.000000,1.000000,0,0,0,0,0,0,0,0,0,0,0,0,0,50.1445844122,14.3692357953,5013.472168,2.154752,4.492510,242.705994,1.537686,90.870262,0.053632,0.150629,-8.403710,-134.842514,-79.513458,156.469330,-8.676405,4.193399,8.403710,1.037903,0.000000,0.000000,0.000000,0.538524,-1.098843,-33.493988,0.115237,0.000000,0.037815,0.037815,0.007277,1.000000,2139.490479
0.010822,0.027000,0.000094,0.115165,-0.008607,0.015885,0.000000,0.000000,0.000000,0.775761,0.000000,0.000000,0.000000,0.000000,0.000000,1.000000,1.000000,1.000000,1.000000,1.000000,1.000000,3.000000,0.000000,0.000000,0.000000,0.999985,0.999985,0.000000,0.000000,1.000000,1.000000,1.000000,1.000000,1.000000,1.000000,0,0,0,0,0,0,0,0,0,0,0,0,0,50.1445825963,14.3692310050,5013.540039,2.133128,4.498765,242.679108,1.562560,90.858925,0.053705,0.150612,-8.414226,-134.827972,-79.504944,156.457062,-8.603591,4.192958,8.414226,1.038132,0.000000,0.000000,0.000000,0.534407,-1.110372,-33.501053,0.115237,0.000000,0.037815,0.037815,0.007277,1.000000,2139.440674
0.010822,0.027000,0.000094,0.115165,-0.008607,0.007950,0.000000,0.000000,0.000000,0.775761,0.000000,0.000000,0.000000,0.000000,0.000000,1.000000,1.000000,1.000000,1.000000,1.000000,1.000000,3.000000,0.000000,0.000000,0.000000,0.999985,0.999985,0.000000,0.000000,1.000000,1.000000,1.000000,1.000000,1.000000,1.000000,0,0,0,0,0,0,0,0,0,0,0,0,0,50.1445771499,14.3692166373,5013.744141,2.065308,4.517560,242.601593,1.633801,90.824432,0.053926,0.150561,-8.446095,-134.783798,-79.479591,156.419235,-8.394477,4.191530,8.446095,1.038789,0.000000,0.000000,0.000000,0.525106,-1.103413,-33.520630,0.115237,0.000000,0.037815,0.037815,-0.000657,1.000000,2139.289795
0.010822,0.027000,0.000094,0.115165,-0.008607,0.015885,0.000000,0.000000,0.000000,0.775761,0.000000,0.000000,0.000000,0.000000,0.000000,1.000000,1.000000,1.000000,1.000000,1.000000,1.000000,3.000000,0.000000,0.000000,0.000000,0.999985,0.999985,0.000000,0.000000,1.000000,1.000000,1.000000,1.000000,1.000000,1.000000,0,0,0,0,0,0,0,0,0,0,0,0,0,50.1445717052,14.3692022744,5013.949219,1.993371,4.536363,242.528717,1.699713,90.789795,0.054150,0.150509,-8.478564,-134.738342,-79.455437,156.379913,-8.200105,4.189791,8.478564,1.039534,0.000000,0.000000,0.000000,0.516243,-1.130638,-33.543552,0.115237,0.000000,0.037815,0.037815,0.007277,1.000000,2139.136475
0.010822,0.027000,0.000094,0.115165,-0.008607,0.007950,0.000000,0.000000,0.000000,0.775761,0.000000,0.000000,0.000000,0.000000,0.000000,1.000000,1.000000,1.000000,1.000000,1.000000,1.000000,3.000000,0.000000,0.000000,0.000000,0.999985,0.999985,0.000000,0.000000,1.000000,1.000000,1.000000,1.000000,1.000000,1.000000,0,0,0,0,0,0,0,0,0,0,0,0,0,50.1445698907,14.3691974879,5014.018066,1.968523,4.542622,242.505463,1.720332,90.778206,0.054226,0.150492,-8.489538,-134.722717,-79.448051,156.366501,-8.139065,4.189119,8.489538,1.039783,0.000000,0.000000,0.000000,0.514081,-1.172252,-33.551609,0.115237,0.000000,0.037815,0.037815,-0.000657,1.000000,2139.084717
0.010822,0.027000,0.000094,0.115165,-0.008607,0.015885,0.000000,0.000000,0.000000,0.775761,0.000000,0.000000,0.000000,0.000000,0.000000,1.000000,1.000000,1.000000,1.000000,1.000000,1.000000,3.000000,0.000000,0.000000,0.000000,0.999985,0.999985,0.000000,0.000000,1.000000,1.000000,1.000000,1.000000,1.000000,1.000000,0,0,0,0,0,0,0,0,0,0,0,0,0,50.1445662621,14.3691879165,5014.155273,1.917548,4.555112,242.460617,1.759888,90.754959,0.054379,0.150457,-8.511665,-134.691315,-79.433197,156.339203,-8.021610,4.187608,8.511665,1.040269,0.000000,0.000000,0.000000,0.510195,-1.184836,-33.566399,0.115237,0.000000,0.037815,0.037815,0.007277,1.000000,2138.980225
0.010822,0.027000,0.000094,0.115165,-0.008607,0.015885,0.000000,0.000000,0.000000,0.775761,0.000000,0.000000,0.000000,0.000000,0.000000,1.000000,1.000000,1.000000,1.000000,1.000000,1.000000,3.000000,0.000000,0.000000,0.000000,0.999985,0.999985,0.000000,0.000000,1.000000,1.000000,1.000000,1.000000,1.000000,1.000000,0,0,0,0,0,0,0,0,0,0,0,0,0,50.1445590069,14.3691687805,5014.431152,1.810808,4.579920,242.377548,1.831565,90.708389,0.054691,0.150387,-8.556739,-134.627060,-79.404808,156.282852,-7.807191,4.183739,8.556739,1.041320,0.000000,0.000000,0.000000,0.502069,-1.176137,-33.598309,0.115237,0.000000,0.037815,0.037815,0.007277,1.000000,2138.768311
0.010822,0.027000,0.000094,0.115165,-0.008607,0.007950,0.000000,0.000000,0.000000,0.775761,0.000000,0.000000,0.000000,0.000000,0.000000,1.000000,1.000000,1.000000,1.000000,1.000000,1.000000,3.000000,0.000000,0.000000,0.000000,0.999985,0.999985,0.000000,0.000000,1.000000,1.000000,1.000000,1.000000,1.000000,1.000000,0,0,0,0,0,0,0,0,0,0,0,0,0,50.1445553803,14.3691592160,5014.569824,1.755234,4.592210,242.339340,1.863560,90.685051,0.054850,0.150352,-8.579693,-134.594040,-79.391647,156.253845,-7.710583,4.181316,8.579693,1.041810,0.000000,0.000000,0.000000,0.499842,-1.184086,-33.613232,0.115237,0.000000,0.037815,0.037815,-0.000657,1.000000,2138.660645
0.010822,0.027000,0.000094,0.115165,-0.008607,0.071458,0.000000,0.000000,0.000000,0.775761,0.000000,0.000000,0.000000,0.000000,0.000000,1.000000,1.000000,1.000000,1.000000,1.000000,1.000000,3.000000,0.000000,0.000000,0.000000,0.999985,0.999985,0.000000,0.000000,1.000000,1.000000,1.000000,1.000000,1.000000,1.000000,0,0,0,0,0,0,0,0,0,0,0,0,0,50.1445517542,14.3691496539,5014.708496,1.698301,4.604403,242.303360,1.891953,90.661781,0.055011,0.150316,-8.603015,-134.559174,-79.381798,156.224411,-7.624024,4.178518,8.603015,1.042314,0.000000,0.000000,0.000000,0.500868,-1.462316,-33.631882,0.115237,0.000000,0.037815,0.037815,0.062840,1.000000,2138.551758
0.010822,0.027000,0.000094,0.115165,-0.008607,0.015885,0.000000,0.000000,0.000000,0.775761,0.000000,0.000000,0.000000,0.000000,0.000000,1.000000,1.000000,1.000000,1.000000,1.000000,1.000000,3.000000,0.000000,0.000000,0.000000,0.999985,0.999985,0.000000,0.000000,1.000000,1.000000,1.000000,1.000000,1.000000,1.000000,0,0,0,0,0,0,0,0,0,0,0,0,0,50.1445481285,14.3691400944,5014.848145,1.639758,4.616460,242.270264,1.917805,90.638519,0.055174,0.150280,-8.626535,-134.524628,-79.370819,156.194336,-7.544352,4.175241,8.626535,1.042805,0.000000,0.000000,0.000000,0.496502,-1.226056,-33.643726,0.115237,0.000000,0.037815,0.037815,0.007277,1.000000,2138.442139
0.010822,0.027000,0.000094,0.115165,-0.008607,0.015885,0.000000,0.000000,0.000000,0.775761,0.000000,0.000000,0.000000,0.000000,0.000000,1.000000,1.000000,1.000000,1.000000,1.000000,1.000000,3.000000,0.000000,0.000000,0.000000,0.999985,0.999985,0.000000,0.000000,1.000000,1.000000,1.000000,1.000000,1.000000,1.000000,0,0,0,0,0,0,0,0,0,0,0,0,0,50.1445445034,14.3691305373,5014.987793,1.579930,4.628386,242.239700,1.941171,90.615280,0.055338,0.150245,-8.650277,-134.490021,-79.359512,156.163696,-7.471463,4.171512,8.650277,1.043283,0.000000,0.000000,0.000000,0.495384,-1.230511,-33.658356,0.115237,0.000000,0.037815,0.037815,0.007277,1.000000,2138.331299
0.010822,0.027000,0.000094,0.115165,-0.008607,0.015885,0.000000,0.000000,0.000000,0.775761,0.000000,0.000000,0.000000,0.000000,0.000000,1.000000,1.000000,1.000000,1.000000,1.000000,1.000000,3.000000,0.000000,0.000000,0.000000,0.999985,0.999985,0.000000,0.000000,1.000000,1.000000,1.000000,1.000000,1.000000,1.000000,0,0,0,0,0,0,0,0,0,0,0,0,0,50.1445372546,14.3691114307,5015.268066,1.457109,4.651825,242.185638,1.980018,90.568947,0.055671,0.150172,-8.698465,-134.419449,-79.338470,156.101044,-7.347318,4.162676,8.698465,1.044205,0.000000,0.000000,0.000000,0.494285,-1.235802,-33.686584,0.115237,0.000000,0.037815,0.037815,0.007277,1.000000,2138.106934
0.010822,0.027000,0.000094,0.115165,-0.008607,0.015885,0.000000,0.000000,0.000000,0.775761,0.000000,0.000000,0.000000,0.000000,0.000000,1.000000,1.000000,1.000000,1.000000,1.000000,1.000000,3.000000,0.000000,0.000000,0.000000,0.999985,0.999985,0.000000,0.000000,1.000000,1.000000,1.000000,1.000000,1.000000,1.000000,0,0,0,0,0,0,0,0,0,0,0,0,0,50.1445336309,14.3691018812,5015.409180,1.394290,4.663318,242.162155,1.995504,90.545837,0.055839,0.150136,-8.722882,-134.383514,-79.328728,156.069046,-7.296036,4.157530,8.722882,1.044592,0.000000,0.000000,0.000000,0.495269,-1.233900,-33.698227,0.115237,0.000000,0.037815,0.037815,0.007277,1.000000,2137.993408
0.010822,0.027000,0.000094,0.115165,-0.008607,0.015885,0.000000,0.000000,0.000000,0.775761,0.000000,0.000000,0.000000,0.000000,0.000000,1.000000,1.000000,1.000000,1.000000,1.000000,1.000000,3.000000,0.000000,0.000000,0.000000,0.999985,0.999985,0.000000,0.000000,1.000000,1.000000,1.000000,1.000000,1.000000,1.000000,0,0,0,0,0,0,0,0,0,0,0,0,0,50.1445300077,14.3690923343,5015.550781,1.330650,4.674649,242.141022,2.008372,90.522820,0.056010,0.150100,-8.747498,-134.347168,-79.319496,156.036636,-7.251922,4.151873,8.747498,1.044974,0.000000,0.000000,0.000000,0.496178,-1.231997,-33.709824,0.115237,0.000000,0.037815,0.037815,0.007277,1.000000,2137.879150
0.010822,0.027000,0.000094,0.115165,-0.008607,0.015885,0.000000,0.000000,0.000000,0.775761,0.000000,0.000000,0.000000,0.000000,0.000000,1.000000,1.000000,1.000000,1.000000,1.000000,1.000000,3.000000,0.000000,0.000000,0.000000,0.999985,0.999985,0.000000,0.000000,1.000000,1.000000,1.000000,1.000000,1.000000,1.000000,0,0,0,0,0,0,0,0,0,0,0,0,0,50.1445263849,14.3690827900,5015.692383,1.266277,4.685810,242.122253,2.018634,90.499870,0.056181,0.150063,-8.772291,-134.310410,-79.310760,156.003830,-7.214937,4.145697,8.772291,1.045326,0.000000,0.000000,0.000000,0.497541,-1.228609,-33.720432,0.115237,0.000000,0.037815,0.037815,0.007277,1.000000,2137.763916
0.010822,0.027000,0.000094,0.115165,-0.008607,0.015885,0.000000,0.000000,0.000000,0.775761,0.000000,0.000000,0.000000,0.000000,0.000000,1.000000,1.000000,1.000000,1.000000,1.000000,1.000000,3.000000,0.000000,0.000000,0.000000,0.999985,0.999985,0.000000,0.000000,1.000000,1.000000,1.000000,1.000000,1.000000,1.000000,0,0,0,0,0,0,0,0,0,0,0,0,0,50.1445191403,14.3690637094,5015.977051,1.135688,4.707599,242.091766,2.031399,90.454247,0.056527,0.149990,-8.822332,-134.235794,-79.294746,155.937073,-7.162167,4.131754,8.822332,1.045927,0.000000,0.000000,0.000000,0.501594,-1.217458,-33.738407,0.115237,0.000000,0.037815,0.037815,0.007277,1.000000,2137.531250
0.010822,0.027000,0.000094,0.115165,-0.008607,0.015885,0.000000,0.000000,0.000000,0.775761,0.000000,0.000000,0.000000,0.000000,0.000000,1.000000,1.000000,1.000000,1.000000,1.000000,1.000000,3.000000,0.000000,0.000000,0.000000,0.999985,0.999985,0.000000,0.000000,1.000000,1.000000,1.000000,1.000000,1.000000,1.000000,0,0,0,0,0,0,0,0,0,0,0,0,0,50.1445155186,14.3690541731,5016.120117,1.069647,4.718219,242.080032,2.033939,90.431587,0.056701,0.149953,-8.847540,-134.197952,-79.287445,155.903152,-7.146271,4.123982,8.847540,1.046172,0.000000,0.000000,0.000000,0.504266,-1.209741,-33.745651,0.115237,0.000000,0.037815,0.037815,0.007277,1.000000,2137.413574
0.010822,0.027000,0.000094,0.115165,-0.008607,0.015885,0.000000,0.000000,0.000000,0.775761,0.000000,0.000000,0.000000,0.000000,0.000000,1.000000,1.000000,1.000000,1.000000,1.000000,1.000000,3.000000,0.000000,0.000000,0.000000,0.999985,0.999985,0.000000,0.000000,1.000000,1.000000,1.000000,1.000000,1.000000,1.000000,0,0,0,0,0,0,0,0,0,0,0,0,0,50.1445118972,14.3690446395,5016.263672,1.003227,4.728651,242.070602,2.033945,90.409027,0.056876,0.149916,-8.872845,-134.159790,-79.280602,155.868896,-7.137280,4.115676,8.872845,1.046379,0.000000,0.000000,0.000000,0.507357,-1.200629,-33.751671,0.115237,0.000000,0.037815,0.037815,0.007277,1.000000,2137.295410
0.010822,0.027000,0.000094,0.115165,-0.008607,0.015885,0.000000,0.000000,0.000000,0.775761,0.000000,0.000000,0.000000,0.000000,0.000000,1.000000,1.000000,1.000000,1.000000,1.000000,1.000000,3.000000,0.000000,0.000000,0.000000,0.999985,0.999985,0.000000,0.000000,1.000000,1.000000,1.000000,1.000000,1.000000,1.000000,0,0,0,0,0,0,0,0,0,0,0,0,0,50.1445082760,14.3690351087,5016.407227,0.936514,4.738894,242.063492,2.031445,90.386574,0.057052,0.149879,-8.898223,-134.121338,-79.274200,155.834305,-7.135118,4.106842,8.898223,1.046546,0.000000,0.000000,0.000000,0.510860,-1.190149,-33.756428,0.115237,0.000000,0.037815,0.037815,0.007277,1.000000,2137.176514
0.010822,0.027000,0.000094,0.115165,-0.008607,0.007950,0.000000,0.000000,0.000000,0.775761,0.000000,0.000000,0.000000,0.000000,0.000000,1.000000,1.000000,1.000000,1.000000,1.000000,1.000000,3.000000,0.000000,0.000000,0.000000,0.999985,0.999985,0.000000,0.000000,1.000000,1.000000,1.000000,1.000000,1.000000,1.000000,0,0,0,0,0,0,0,0,0,0,0,0,0,50.1445046552,14.3690255806,5016.551758,0.869596,4.748948,242.058670,2.026610,90.364227,0.057228,0.149842,-8.923647,-134.082764,-79.267860,155.799408,-7.139288,4.097486,8.923647,1.046672,0.000000,0.000000,0.000000,0.514267,-1.144838,-33.759506,0.115237,0.000000,0.037815,0.037815,-0.000657,1.000000,2137.057129
0.010822,0.027000,0.000094,0.115165,-0.008607,0.015885,0.000000,0.000000,0.000000,0.775761,0.000000,0.000000,0.000000,0.000000,0.000000,1.000000,1.000000,1.000000,1.000000,1.000000,1.000000,3.000000,0.000000,0.000000,0.000000,0.999985,0.999985,0.000000,0.000000,1.000000,1.000000,1.000000,1.000000,1.000000,1.000000,0,0,0,0,0,0,0,0,0,0,0,0,0,50.1444974144,14.3690065328,5016.841309,0.735580,4.768490,242.055588,2.009579,90.319893,0.057581,0.149768,-8.974573,-134.004532,-79.257080,155.728745,-7.167674,4.077275,8.974573,1.046801,0.000000,0.000000,0.000000,0.523726,-1.151653,-33.762928,0.115237,0.000000,0.037815,0.037815,0.007277,1.000000,2136.816162
0.010822,0.027000,0.000094,0.115165,-0.008607,0.015885,0.000000,0.000000,0.000000,0.775761,0.000000,0.000000,0.000000,0.000000,0.000000,1.000000,1.000000,1.000000,1.000000,1.000000,1.000000,3.000000,0.000000,0.000000,0.000000,0.999985,0.999985,0.000000,0.000000,1.000000,1.000000,1.000000,1.000000,1.000000,1.000000,0,0,0,0,0,0,0,0,0,0,0,0,0,50.1444937943,14.3689970131,5016.986816,0.668601,4.777980,242.057373,1.997468,90.297905,0.057757,0.149731,-9.000025,-133.965042,-79.252342,155.692993,-7.191635,4.066437,9.000025,1.046802,0.000000,0.000000,0.000000,0.528785,-1.136035,-33.762413,0.115237,0.000000,0.037815,0.037815,0.007277,1.000000,2136.695068
0.010822,0.027000,0.000094,0.115165,-0.008607,0.007950,0.000000,0.000000,0.000000,0.775761,0.000000,0.000000,0.000000,0.000000,0.000000,1.000000,1.000000,1.000000,1.000000,1.000000,1.000000,3.000000,0.000000,0.000000,0.000000,0.999985,0.999985,0.000000,0.000000,1.000000,1.000000,1.000000,1.000000,1.000000,1.000000,0,0,0,0,0,0,0,0,0,0,0,0,0,50.1444901744,14.3689874963,5017.132813,0.601748,4.787285,242.061340,1.983162,90.276039,0.057933,0.149694,-9.025433,-133.925507,-79.247627,155.656967,-7.221527,4.055133,9.025433,1.046762,0.000000,0.000000,0.000000,0.533750,-1.085783,-33.760178,0.115237,0.000000,0.037815,0.037815,-0.000657,1.000000,2136.573242
0.010822,0.027000,0.000094,0.115165,-0.008607,0.015885,0.000000,0.000000,0.000000,0.775761,0.000000,0.000000,0.000000,0.000000,0.000000,1.000000,1.000000,1.000000,1.000000,1.000000,1.000000,3.000000,0.000000,0.000000,0.000000,0.999985,0.999985,0.000000,0.000000,1.000000,1.000000,1.000000,1.000000,1.000000,1.000000,0,0,0,0,0,0,0,0,0,0,0,0,0,50.1444865548,14.3689779822,5017.279297,0.535146,4.796411,242.067383,1.966541,90.254295,0.058109,0.149657,-9.050784,-133.885666,-79.243523,155.620697,-7.257705,4.043391,9.050784,1.046680,0.000000,0.000000,0.000000,0.540011,-1.102063,-33.757462,0.115237,0.000000,0.037815,0.037815,0.007277,1.000000,2136.451172
0.010822,0.027000,0.000094,0.115165,-0.008607,0.015885,0.000000,0.000000,0.000000,0.775761,0.000000,0.000000,0.000000,0.000000,0.000000,1.000000,1.000000,1.000000,1.000000,1.000000,1.000000,3.000000,0.000000,0.000000,0.000000,0.999985,0.999985,0.000000,0.000000,1.000000,1.000000,1.000000,1.000000,1.000000,1.000000,0,0,0,0,0,0,0,0,0,0,0,0,0,50.1444829353,14.3689684710,5017.426270,0.468843,4.805359,242.075531,1.947644,90.232674,0.058285,0.149620,-9.076055,-133.845612,-79.239906,155.584198,-7.300052,4.031227,9.076055,1.046557,0.000000,0.000000,0.000000,0.546188,-1.082917,-33.752975,0.115237,0.000000,0.037815,0.037815,0.007277,1.000000,2136.328613
0.010822,0.027000,0.000094,0.115165,-0.008607,0.015885,0.000000,0.000000,0.000000,0.775761,0.000000,0.000000,0.000000,0.000000,0.000000,1.000000,1.000000,1.000000,1.000000,1.000000,1.000000,3.000000,0.000000,0.000000,0.000000,0.999985,0.999985,0.000000,0.000000,1.000000,1.000000,1.000000,1.000000,1.000000,1.000000,0,0,0,0,0,0,0,0,0,0,0,0,0,50.1444756968,14.3689494573,5017.721191,0.337403,4.822742,242.098022,1.903268,90.189804,0.058634,0.149545,-9.126261,-133.765045,-79.233673,155.510468,-7.402546,4.005716,9.126261,1.046190,0.000000,0.000000,0.000000,0.559614,-1.041432,-33.740150,0.115237,0.000000,0.037815,0.037815,0.007277,1.000000,2136.082275
0.010822,0.027000,0.000094,0.115165,-0.008607,0.015885,0.000000,0.000000,0.000000,0.775761,0.000000,0.000000,0.000000,0.000000,0.000000,1.000000,1.000000,1.000000,1.000000,1.000000,1.000000,3.000000,0.000000,0.000000,0.000000,0.999985,0.999985,0.000000,0.000000,1.000000,1.000000,1.000000,1.000000,1.000000,1.000000,0,0,0,0,0,0,0,0,0,0,0,0,0,50.1444720777,14.3689399548,5017.869141,0.272425,4.831186,242.112320,1.877887,90.168556,0.058807,0.149508,-9.151155,-133.724579,-79.231026,155.473267,-7.462417,3.992422,9.151155,1.045948,0.000000,0.000000,0.000000,0.566868,-1.019133,-33.731869,0.115237,0.000000,0.037815,0.037815,0.007277,1.000000,2135.958496
0.010822,0.027000,0.000094,0.115165,-0.008607,0.007950,0.000000,0.000000,0.000000,0.775761,0.000000,0.000000,0.000000,0.000000,0.000000,1.000000,1.000000,1.000000,1.000000,1.000000,1.000000,3.000000,0.000000,0.000000,0.000000,0.999985,0.999985,0.000000,0.000000,1.000000,1.000000,1.000000,1.000000,1.000000,1.000000,0,0,0,0,0,0,0,0,0,0,0,0,0,50.1444684588,14.3689304551,5018.017578,0.208042,4.839473,242.128571,1.850590,90.147415,0.058979,0.149471,-9.175881,-133.684219,-79.228302,155.435837,-7.527431,3.978805,9.175881,1.045668,0.000000,0.000000,0.000000,0.574078,-0.962528,-33.721989,0.115237,0.000000,0.037815,0.037815,-0.000657,1.000000,2135.834473
0.010822,0.027000,0.000094,0.115165,-0.008607,0.015885,0.000000,0.000000,0.000000,0.775761,0.000000,0.000000,0.000000,0.000000,0.000000,1.000000,1.000000,1.000000,1.000000,1.000000,1.000000,3.000000,0.000000,0.000000,0.000000,0.999985,0.999985,0.000000,0.000000,1.000000,1.000000,1.000000,1.000000,1.000000,1.000000,0,0,0,0,0,0,0,0,0,0,0,0,0,50.1444648400,14.3689209584,5018.166504,0.144372,4.847610,242.146667,1.821271,90.126396,0.059150,0.149435,-9.200425,-133.643661,-79.226112,155.398209,-7.597907,3.964906,9.200425,1.045352,0.000000,0.000000,0.000000,0.582399,-0.972483,-33.711784,0.115237,0.000000,0.037815,0.037815,0.007277,1.000000,2135.710205
0.010822,0.027000,0.000094,0.115165,-0.008607,0.007950,0.000000,0.000000,0.000000,0.775761,0.000000,0.000000,0.000000,0.000000,0.000000,1.000000,1.000000,1.000000,1.000000,1.000000,1.000000,3.000000,0.000000,0.000000,0.000000,0.999985,0.999985,0.000000,0.000000,1.000000,1.000000,1.000000,1.000000,1.000000,1.000000,0,0,0,0,0,0,0,0,0,0,0,0,0,50.1444612212,14.3689114645,5018.315918,0.081453,4.855603,242.166626,1.790126,90.105492,0.059320,0.149398,-9.224765,-133.603165,-79.223938,155.360382,-7.673284,3.950744,9.224765,1.045001,0.000000,0.000000,0.000000,0.590328,-0.914063,-33.699600,0.115237,0.000000,0.037815,0.037815,-0.000657,1.000000,2135.585693
0.010822,0.027000,0.000094,0.115165,-0.008607,0.015885,0.000000,0.000000,0.000000,0.775761,0.000000,0.000000,0.000000,0.000000,0.000000,1.000000,1.000000,1.000000,1.000000,1.000000,1.000000,3.000000,0.000000,0.000000,0.000000,0.999985,0.999985,0.000000,0.000000,1.000000,1.000000,1.000000,1.000000,1.000000,1.000000,0,0,0,0,0,0,0,0,0,0,0,0,0,50.1444539840,14.3688924855,5018.615723,-0.041804,4.871181,242.211792,1.722163,90.064003,0.059655,0.149324,-9.272769,-133.521805,-79.220947,155.284180,-7.839325,3.921773,9.272769,1.044197,0.000000,0.000000,0.000000,0.608215,-0.895487,-33.673244,0.115237,0.000000,0.037815,0.037815,0.007277,1.000000,2135.335938
0.010822,0.027000,0.000094,0.115165,-0.008607,0.007950,0.000000,0.000000,0.000000,0.775761,0.000000,0.000000,0.000000,0.000000,0.000000,1.000000,1.000000,1.000000,1.000000,1.000000,1.000000,3.000000,0.000000,0.000000,0.000000,0.999985,0.999985,0.000000,0.000000,1.000000,1.000000,1.000000,1.000000,1.000000,1.000000,0,0,0,0,0,0,0,0,0,0,0,0,0,50.1444503655,14.3688830003,5018.766113,-0.102055,4.878778,242.236984,1.685623,90.043411,0.059821,0.149288,-9.296400,-133.481262,-79.219467,155.245804,-7.929191,3.907014,9.296400,1.043748,0.000000,0.000000,0.000000,0.617177,-0.834741,-33.657925,0.115237,0.000000,0.037815,0.037815,-0.000657,1.000000,2135.210693
0.010822,0.027000,0.000094,0.115165,-0.008607,0.015885,0.000000,0.000000,0.000000,0.775761,0.000000,0.000000,0.000000,0.000000,0.000000,1.000000,1.000000,1.000000,1.000000,1.000000,1.000000,3.000000,0.000000,0.000000,0.000000,0.999985,0.999985,0.000000,0.000000,1.000000,1.000000,1.000000,1.000000,1.000000,1.000000,0,0,0,0,0,0,0,0,0,0,0,0,0,50.1444467471,14.3688735180,5018.916992,-0.161261,4.886255,242.263779,1.647356,90.022926,0.059984,0.149251,-9.319763,-133.440628,-79.218445,155.207260,-8.023703,3.892124,9.319763,1.043270,0.000000,0.000000,0.000000,0.627027,-0.840600,-33.642513,0.115237,0.000000,0.037815,0.037815,0.007277,1.000000,2135.085205
0.010822,0.027000,0.000094,0.115165,-0.008607,0.015885,0.000000,0.000000,0.000000,0.775761,0.000000,0.000000,0.000000,0.000000,0.000000,1.000000,1.000000,1.000000,1.000000,1.000000,1.000000,3.000000,0.000000,0.000000,0.000000,0.999985,0.999985,0.000000,0.000000,1.000000,1.000000,1.000000,1.000000,1.000000,1.000000,0,0,0,0,0,0,0,0,0,0,0,0,0,50.1444431287,14.3688640386,5019.068359,-0.219394,4.893618,242.292175,1.607420,90.002541,0.060146,0.149215,-9.342844,-133.399979,-79.217720,155.168549,-8.122691,3.877127,9.342844,1.042763,0.000000,0.000000,0.000000,0.636922,-0.811678,-33.625744,0.115237,0.000000,0.037815,0.037815,0.007277,1.000000,2134.959717
0.010822,0.027000,0.000094,0.115165,-0.008607,0.007950,0.000000,0.000000,0.000000,0.775761,0.000000,0.000000,0.000000,0.000000,0.000000,1.000000,1.000000,1.000000,1.000000,1.000000,1.000000,3.000000,0.000000,0.000000,0.000000,0.999985,0.999985,0.000000,0.000000,1.000000,1.000000,1.000000,1.000000,1.000000,1.000000,0,0,0,0,0,0,0,0,0,0,0,0,0,50.1444395103,14.3688545622,5019.219727,-0.276408,4.900874,242.322144,1.566043,89.982239,0.060306,0.149178,-9.365631,-133.359573,-79.216789,155.129669,-8.225506,3.862052,9.365631,1.042230,0.000000,0.000000,0.000000,0.646892,-0.748960,-33.607735,0.115237,0.000000,0.037815,0.037815,-0.000657,1.000000,2134.834229
0.010822,0.027000,0.000094,0.115165,-0.008607,0.015885,0.000000,0.000000,0.000000,0.775761,0.000000,0.000000,0.000000,0.000000,0.000000,1.000000,1.000000,1.000000,1.000000,1.000000,1.000000,3.000000,0.000000,0.000000,0.000000,0.999985,0.999985,0.000000,0.000000,1.000000,1.000000,1.000000,1.000000,1.000000,1.000000,0,0,0,0,0,0,0,0,0,0,0,0,0,50.1444322737,14.3688356178,5019.524414,-0.386702,4.915085,242.386322,1.479022,89.941887,0.060620,0.149106,-9.410275,-133.278931,-79.215485,155.051468,-8.442528,3.831826,9.410275,1.041094,0.000000,0.000000,0.000000,0.668348,-0.723056,-33.570702,0.115237,0.000000,0.037815,0.037815,0.007277,1.000000,2134.582520
0.010822,0.027000,0.000094,0.115165,-0.008607,0.015885,0.000000,0.000000,0.000000,0.775761,0.000000,0.000000,0.000000,0.000000,0.000000,1.000000,1.000000,1.000000,1.000000,1.000000,1.000000,3.000000,0.000000,0.000000,0.000000,0.999985,0.999985,0.000000,0.000000,1.000000,1.000000,1.000000,1.000000,1.000000,1.000000,0,0,0,0,0,0,0,0,0,0,0,0,0,50.1444286554,14.3688261500,5019.676758,-0.439913,4.922051,242.420456,1.433362,89.921837,0.060774,0.149070,-9.432108,-133.238602,-79.215324,155.012177,-8.556785,3.816727,9.432108,1.040492,0.000000,0.000000,0.000000,0.679412,-0.691907,-33.550861,0.115237,0.000000,0.037815,0.037815,0.007277,1.000000,2134.456787
0.010822,0.027000,0.000094,0.115165,-0.008607,0.015885,0.000000,0.000000,0.000000,0.775761,0.000000,0.000000,0.000000,0.000000,0.000000,1.000000,1.000000,1.000000,1.000000,1.000000,1.000000,3.000000,0.000000,0.000000,0.000000,0.999985,0.999985,0.000000,0.000000,1.000000,1.000000,1.000000,1.000000,1.000000,1.000000,0,0,0,0,0,0,0,0,0,0,0,0,0,50.1444250371,14.3688166850,5019.830078,-0.491793,4.928931,242.455933,1.386387,89.901863,0.060926,0.149034,-9.453603,-133.198425,-79.215263,154.972733,-8.674541,3.801672,9.453603,1.039871,0.000000,0.000000,0.000000,0.690752,-0.660332,-33.530380,0.115237,0.000000,0.037815,0.037815,0.007277,1.000000,2134.330811
0.010822,0.027000,0.000094,0.115165,-0.008607,0.007950,0.000000,0.000000,0.000000,0.775761,0.000000,0.000000,0.000000,0.000000,0.000000,1.000000,1.000000,1.000000,1.000000,1.000000,1.000000,3.000000,0.000000,0.000000,0.000000,0.999985,0.999985,0.000000,0.000000,1.000000,1.000000,1.000000,1.000000,1.000000,1.000000,0,0,0,0,0,0,0,0,0,0,0,0,0,50.1444214188,14.3688072229,5019.983398,-0.542291,4.935728,242.492691,1.338309,89.881958,0.061075,0.148998,-9.474754,-133.158569,-79.214905,154.933151,-8.795197,3.786690,9.474754,1.039231,0.000000,0.000000,0.000000,0.702281,-0.595228,-33.508915,0.115237,0.000000,0.037815,0.037815,-0.000657,1.000000,2134.204834
0.010822,0.027000,0.000094,0.115165,-0.008607,0.015885,0.000000,0.000000,0.000000,0.775761,0.000000,0.000000,0.000000,0.000000,0.000000,1.000000,1.000000,1.000000,1.000000,1.000000,1.000000,3.000000,0.000000,0.000000,0.000000,0.999985,0.999985,0.000000,0.000000,1.000000,1.000000,1.000000,1.000000,1.000000,1.000000,0,0,0,0,0,0,0,0,0,0,0,0,0,50.1444178006,14.3687977636,5020.137207,-0.591314,4.942446,242.530594,1.289040,89.862122,0.061223,0.148963,-9.495550,-133.118744,-79.214859,154.893448,-8.919024,3.771820,9.495550,1.038576,0.000000,0.000000,0.000000,0.714225,-0.596823,-33.487785,0.115237,0.000000,0.037815,0.037815,0.007277,1.000000,2134.078857
0.010822,0.027000,0.000000,0.115165,-0.008607,0.007950,0.000000,0.000000,0.000000,0.775761,0.000000,0.000000,0.000000,0.000000,0.000000,1.000000,1.000000,1.000000,1.000000,1.000000,1.000000,3.000000,0.000000,0.000000,0.000000,0.999985,0.999985,0.000000,0.000000,1.000000,1.000000,1.000000,1.000000,1.000000,1.000000,0,0,0,0,0,0,0,0,0,0,0,0,0,50.1444105641,14.3687788534,5020.445801,-0.684830,4.955669,242.609680,1.187633,89.822624,0.061510,0.148892,-9.536034,-133.039932,-79.214279,154.813721,-9.174205,3.742554,9.536034,1.037185,0.000000,0.000000,0.000000,0.738132,-0.498964,-33.441975,0.115143,0.000000,0.037815,0.037815,-0.000657,1.000000,2133.826904
0.010822,0.027000,0.000000,0.115165,-0.008607,0.015885,0.000000,0.000000,0.000000,0.775761,0.000000,0.000000,0.000000,0.000000,0.000000,1.000000,1.000000,1.000000,1.000000,1.000000,1.000000,3.000000,0.000000,0.000000,0.000000,0.999985,0.999985,0.000000,0.000000,1.000000,1.000000,1.000000,1.000000,1.000000,1.000000,0,0,0,0,0,0,0,0,0,0,0,0,0,50.1444069458,14.3687694026,5020.601074,-0.729204,4.962188,242.650650,1.135478,89.802956,0.061650,0.148857,-9.555716,-133.000671,-79.214333,154.773727,-9.305635,3.728235,9.555716,1.036495,0.000000,0.000000,0.000000,0.750754,-0.499689,-33.419704,0.115143,0.000000,0.037815,0.037815,0.007277,1.000000,2133.700928
0.010822,0.027000,0.000000,0.115165,-0.008607,0.015885,0.000000,0.000000,0.000000,0.775761,0.000000,0.000000,0.000000,0.000000,0.000000,1.000000,1.000000,1.000000,1.000000,1.000000,1.000000,3.000000,0.000000,0.000000,0.000000,0.999985,0.999985,0.000000,0.000000,1.000000,1.000000,1.000000,1.000000,1.000000,1.000000,0,0,0,0,0,0,0,0,0,0,0,0,0,50.1444033276,14.3687599545,5020.755859,-0.771981,4.968649,242.692566,1.082413,89.783340,0.061787,0.148822,-9.575025,-132.961578,-79.214500,154.733643,-9.439467,3.714145,9.575025,1.035796,0.000000,0.000000,0.000000,0.763623,-0.466339,-33.396671,0.115143,0.000000,0.037815,0.037815,0.007277,1.000000,2133.574951
0.010822,0.027000,0.000000,0.115165,-0.008607,0.007950,0.000000,0.000000,0.000000,0.775761,0.000000,0.000000,0.000000,0.000000,0.000000,1.000000,1.000000,1.000000,1.000000,1.000000,1.000000,3.000000,0.000000,0.000000,0.000000,0.999985,0.999985,0.000000,0.000000,1.000000,1.000000,1.000000,1.000000,1.000000,1.000000,0,0,0,0,0,0,0,0,0,0,0,0,0,50.1443997093,14.3687505092,5020.911621,-0.813138,4.975054,242.735397,1.028674,89.763771,0.061923,0.148788,-9.593964,-132.922882,-79.214287,154.693466,-9.575032,3.700304,9.593964,1.035089,0.000000,0.000000,0.000000,0.776796,-0.399855,-33.372978,0.115143,0.000000,0.037815,0.037815,-0.000657,1.000000,2133.448975
0.010822,0.027000,0.000000,0.115165,-0.008607,0.015885,0.000000,0.000000,0.000000,0.775761,0.000000,0.000000,0.000000,0.000000,0.000000,1.000000,1.000000,1.000000,1.000000,1.000000,1.000000,3.000000,0.000000,0.000000,0.000000,0.999985,0.999985,0.000000,0.000000,1.000000,1.000000,1.000000,1.000000,1.000000,1.000000,0,0,0,0,0,0,0,0,0,0,0,0,0,50.1443960911,14.3687410666,5021.067383,-0.852600,4.981403,242.778976,0.974173,89.744247,0.062055,0.148753,-9.612522,-132.884308,-79.214279,154.653214,-9.712599,3.686740,9.612522,1.034376,0.000000,0.000000,0.000000,0.789952,-0.400138,-33.349953,0.115143,0.000000,0.037815,0.037815,0.007277,1.000000,2133.322998
0.010822,0.027000,0.000000,0.115165,-0.008607,0.007950,0.000000,0.000000,0.000000,0.775761,0.000000,0.000000,0.000000,0.000000,0.000000,1.000000,1.000000,1.000000,1.000000,1.000000,1.000000,3.000000,0.000000,0.000000,0.000000,0.999985,0.999985,0.000000,0.000000,1.000000,1.000000,1.000000,1.000000,1.000000,1.000000,0,0,0,0,0,0,0,0,0,0,0,0,0,50.1443888546,14.3687221897,5021.379395,-0.926425,4.993933,242.868347,0.863327,89.705315,0.062313,0.148684,-9.648506,-132.808029,-79.213966,154.572525,-9.992496,3.660495,9.648506,1.032934,0.000000,0.000000,0.000000,0.817272,-0.299874,-33.302025,0.115143,0.000000,0.037815,0.037815,-0.000657,1.000000,2133.071289
0.010822,0.027000,0.000000,0.115165,-0.008607,0.015885,0.000000,0.000000,0.000000,0.775761,0.000000,0.000000,0.000000,0.000000,0.000000,1.000000,1.000000,1.000000,1.000000,1.000000,1.000000,3.000000,0.000000,0.000000,0.000000,0.999985,0.999985,0.000000,0.000000,1.000000,1.000000,1.000000,1.000000,1.000000,1.000000,0,0,0,0,0,0,0,0,0,0,0,0,0,50.1443852364,14.3687127553,5021.536133,-0.960704,5.000112,242.913940,0.807132,89.685905,0.062439,0.148650,-9.665926,-132.770248,-79.213753,154.532120,-10.134427,3.647855,9.665926,1.032207,0.000000,0.000000,0.000000,0.830860,-0.300058,-33.278549,0.115143,0.000000,0.037815,0.037815,0.007277,1.000000,2132.945557
0.010822,0.027000,0.000000,0.115165,-0.008607,0.015885,0.000000,0.000000,0.000000,0.775761,0.000000,0.000000,0.000000,0.000000,0.000000,1.000000,1.000000,1.000000,1.000000,1.000000,1.000000,3.000000,0.000000,0.000000,0.000000,0.999985,0.999985,0.000000,0.000000,1.000000,1.000000,1.000000,1.000000,1.000000,1.000000,0,0,0,0,0,0,0,0,0,0,0,0,0,50.1443816182,14.3687033236,5021.693359,-0.993212,5.006231,242.960098,0.750462,89.666527,0.062562,0.148616,-9.682963,-132.732727,-79.213570,154.491684,-10.277580,3.635553,9.682963,1.031477,0.000000,0.000000,0.000000,0.844828,-0.266480,-33.254498,0.115143,0.000000,0.037815,0.037815,0.007277,1.000000,2132.819824
0.010822,0.027000,0.000000,0.115165,-0.008607,0.015885,0.000000,0.000000,0.000000,0.775761,0.000000,0.000000,0.000000,0.000000,0.000000,1.000000,1.000000,1.000000,1.000000,1.000000,1.000000,3.000000,0.000000,0.000000,0.000000,0.999985,0.999985,0.000000,0.000000,1.000000,1.000000,1.000000,1.000000,1.000000,1.000000,0,0,0,0,0,0,0,0,0,0,0,0,0,50.1443780000,14.3686938945,5021.850586,-1.023943,5.012290,243.006775,0.693407,89.647186,0.062682,0.148583,-9.699620,-132.695496,-79.213264,154.451202,-10.421699,3.623600,9.699620,1.030745,0.000000,0.000000,0.000000,0.858928,-0.233031,-33.230381,0.115143,0.000000,0.037815,0.037815,0.007277,1.000000,2132.694336
0.010822,0.027000,0.000000,0.115165,-0.008607,0.015885,0.000000,0.000000,0.000000,0.775761,0.000000,0.000000,0.000000,0.000000,0.000000,1.000000,1.000000,1.000000,1.000000,1.000000,1.000000,3.000000,0.000000,0.000000,0.000000,0.999985,0.999985,0.000000,0.000000,1.000000,1.000000,1.000000,1.000000,1.000000,1.000000,0,0,0,0,0,0,0,0,0,0,0,0,0,50.1443743818,14.3686844681,5022.007813,-1.052875,5.018285,243.053894,0.636041,89.627869,0.062800,0.148549,-9.715897,-132.658569,-79.212830,154.410706,-10.566587,3.612009,9.715897,1.030011,0.000000,0.000000,0.000000,0.873157,-0.199715,-33.206223,0.115143,0.000000,0.037815,0.037815,0.007277,1.000000,2132.568848
0.010822,0.027000,0.000000,0.115165,-0.008607,0.015885,0.000000,0.000000,0.000000,0.775761,0.000000,0.000000,0.000000,0.000000,0.000000,1.000000,1.000000,1.000000,1.000000,1.000000,1.000000,3.000000,0.000000,0.000000,0.000000,0.999985,0.999985,0.000000,0.000000,1.000000,1.000000,1.000000,1.000000,1.000000,1.000000,0,0,0,0,0,0,0,0,0,0,0,0,0,50.1443671455,14.3686656230,5022.323730,-1.105232,5.030075,243.149139,0.520933,89.589317,0.063028,0.148483,-9.747321,-132.585938,-79.211037,154.329727,-10.857145,3.589976,9.747321,1.028544,0.000000,0.000000,0.000000,0.901904,-0.134472,-33.157925,0.115143,0.000000,0.037815,0.037815,0.007277,1.000000,2132.318115
0.010822,0.027000,0.000000,0.115165,-0.008607,0.007950,0.000000,0.000000,0.000000,0.775761,0.000000,0.000000,0.000000,0.000000,0.000000,1.000000,1.000000,1.000000,1.000000,1.000000,1.000000,3.000000,0.000000,0.000000,0.000000,0.999985,0.999985,0.000000,0.000000,1.000000,1.000000,1.000000,1.000000,1.000000,1.000000,0,0,0,0,0,0,0,0,0,0,0,0,0,50.1443635274,14.3686562043,5022.481934,-1.128621,5.035861,243.197113,0.463311,89.570084,0.063139,0.148450,-9.762469,-132.550186,-79.209770,154.289261,-11.002496,3.579556,9.762469,1.027810,0.000000,0.000000,0.000000,0.916853,-0.068913,-33.133339,0.115143,0.000000,0.037815,0.037815,-0.000657,1.000000,2132.192871
0.010822,0.027000,0.000000,0.115165,-0.008607,0.007950,0.000000,0.000000,0.000000,0.775761,0.000000,0.000000,0.000000,0.000000,0.000000,1.000000,1.000000,1.000000,1.000000,1.000000,1.000000,3.000000,0.000000,0.000000,0.000000,0.999985,0.999985,0.000000,0.000000,1.000000,1.000000,1.000000,1.000000,1.000000,1.000000,0,0,0,0,0,0,0,0,0,0,0,0,0,50.1443599094,14.3686467881,5022.640625,-1.150121,5.041570,243.245193,0.405787,89.550865,0.063247,0.148417,-9.777245,-132.514832,-79.208206,154.248840,-11.147507,3.569550,9.777245,1.027079,0.000000,0.000000,0.000000,0.931414,-0.037388,-33.109272,0.115143,0.000000,0.037815,0.037815,-0.000657,1.000000,2132.067627
0.010822,0.027000,0.000000,0.115165,-0.008607,0.007950,0.000000,0.000000,0.000000,0.775761,0.000000,0.000000,0.000000,0.000000,0.000000,1.000000,1.000000,1.000000,1.000000,1.000000,1.000000,3.000000,0.000000,0.000000,0.000000,0.999985,0.999985,0.000000,0.000000,1.000000,1.000000,1.000000,1.000000,1.000000,1.000000,0,0,0,0,0,0,0,0,0,0,0,0,0,50.1443562915,14.3686373745,5022.799316,-1.169716,5.047196,243.293289,0.348411,89.531677,0.063352,0.148385,-9.791646,-132.479828,-79.206444,154.208496,-11.292053,3.559968,9.791646,1.026348,0.000000,0.000000,0.000000,0.946013,-0.006177,-33.085258,0.115143,0.000000,0.037815,0.037815,-0.000657,1.000000,2131.942627
0.010822,0.027000,0.000000,0.115165,-0.008607,0.015885,0.000000,0.000000,0.000000,0.775761,0.000000,0.000000,0.000000,0.000000,0.000000,1.000000,1.000000,1.000000,1.000000,1.000000,1.000000,3.000000,0.000000,0.000000,0.000000,0.999985,0.999985,0.000000,0.000000,1.000000,1.000000,1.000000,1.000000,1.000000,1.000000,0,0,0,0,0,0,0,0,0,0,0,0,0,50.1443526736,14.3686279633,5022.958008,-1.187407,5.052735,243.341339,0.291107,89.512512,0.063455,0.148352,-9.805667,-132.445007,-79.204849,154.168213,-11.436364,3.550815,9.805667,1.025620,0.000000,0.000000,0.000000,0.960082,-0.008169,-33.061745,0.115143,0.000000,0.037815,0.037815,0.007277,1.000000,2131.817627
0.000009,0.027000,0.000000,0.115165,-0.008607,0.007950,0.000000,0.000000,0.000000,0.775761,0.000000,0.000000,0.000000,0.000000,0.000000,1.000000,1.000000,1.000000,1.000000,1.000000,1.000000,3.000000,0.000000,0.000000,0.000000,0.999985,0.999985,0.000000,0.000000,1.000000,1.000000,1.000000,1.000000,1.000000,1.000000,0,0,0,0,0,0,0,0,0,0,0,0,0,50.1443454381,14.3686091483,5023.276855,-1.217937,5.063534,243.437302,0.177205,89.474266,0.063654,0.148288,-9.832603,-132.376526,-79.200844,154.087906,-11.722863,3.533634,9.832603,1.024167,0.000000,0.000000,0.000000,0.990133,0.041866,-33.019501,0.115143,0.000000,0.027004,0.027004,-0.000657,1.000000,2131.568115
0.000037,0.027000,0.000000,0.115165,-0.008607,0.015885,0.000000,0.000000,0.000000,0.775761,0.000000,0.000000,0.000000,0.000000,0.000000,1.000000,1.000000,1.000000,1.000000,1.000000,1.000000,3.000000,0.000000,0.000000,0.000000,0.999985,0.999985,0.000000,0.000000,1.000000,1.000000,1.000000,1.000000,1.000000,1.000000,0,0,0,0,0,0,0,0,0,0,0,0,0,50.1443418205,14.3685997444,5023.436523,-1.231627,5.068786,243.484985,0.120759,89.455177,0.063750,0.148256,-9.845515,-132.342804,-79.198540,154.047928,-11.864643,3.525445,9.845515,1.023444,0.000000,0.000000,0.000000,1.003999,0.043180,-32.995693,0.115143,0.000000,0.027032,0.027032,0.007277,1.000000,2131.443604
0.000037,0.027000,0.000000,0.115165,-0.008607,0.015885,0.000000,0.000000,0.000000,0.775761,0.000000,0.000000,0.000000,0.000000,0.000000,1.000000,1.000000,1.000000,1.000000,1.000000,1.000000,3.000000,0.000000,0.000000,0.000000,0.999985,0.999985,0.000000,0.000000,1.000000,1.000000,1.000000,1.000000,1.000000,1.000000,0,0,0,0,0,0,0,0,0,0,0,0,0,50.1443382030,14.3685903428,5023.596191,-1.244275,5.073934,243.532440,0.064668,89.436119,0.063843,0.148225,-9.858062,-132.309418,-79.196106,154.008072,-12.005400,3.517524,9.858062,1.022725,0.000000,0.000000,0.000000,1.018473,0.077146,-32.971596,0.115143,0.000000,0.027032,0.027032,0.007277,1.000000,2131.319092
0.000037,0.027000,0.000000,0.115165,-0.008607,0.015885,0.000000,0.000000,0.000000,0.775761,0.000000,0.000000,0.000000,0.000000,0.000000,1.000000,1.000000,1.000000,1.000000,1.000000,1.000000,3.000000,0.000000,0.000000,0.000000,0.999985,0.999985,0.000000,0.000000,1.000000,1.000000,1.000000,1.000000,1.000000,1.000000,0,0,0,0,0,0,0,0,0,0,0,0,0,50.1443345857,14.3685809437,5023.756348,-1.255833,5.078976,243.579620,0.009006,89.417091,0.063934,0.148193,-9.870244,-132.276413,-79.193428,153.968338,-12.144928,3.509877,9.870244,1.022009,0.000000,0.000000,0.000000,1.032889,0.110245,-32.947670,0.115143,0.000000,0.027032,0.027032,0.007277,1.000000,2131.194580
0.000037,0.027000,0.000000,0.115165,-0.008607,0.015885,0.000000,0.000000,0.000000,0.775761,0.000000,0.000000,0.000000,0.000000,0.000000,1.000000,1.000000,1.000000,1.000000,1.000000,1.000000,3.000000,0.000000,0.000000,0.000000,0.999985,0.999985,0.000000,0.000000,1.000000,1.000000,1.000000,1.000000,1.000000,1.000000,0,0,0,0,0,0,0,0,0,0,0,0,0,50.1443309684,14.3685715469,5023.916504,-1.266248,5.083907,243.626495,-0.046172,89.398033,0.064023,0.148162,-9.882059,-132.243668,-79.190437,153.928635,-12.283083,3.502515,9.882059,1.021297,0.000000,0.000000,0.000000,1.037180,0.142530,-32.924450,0.115143,0.000000,0.027032,0.027032,0.007277,1.000000,2131.070313
0.000037,0.027000,0.000000,0.115165,-0.008607,0.015885,0.000000,0.000000,0.000000,0.775761,0.000000,0.000000,0.000000,0.000000,0.000000,1.000000,1.000000,1.000000,1.000000,1.000000,1.000000,3.000000,0.000000,0.000000,0.000000,0.999985,0.999985,0.000000,0.000000,1.000000,1.000000,1.000000,1.000000,1.000000,1.000000,0,0,0,0,0,0,0,0,0,0,0,0,0,50.1443237344,14.3685527602,5024.237793,-1.283472,5.093472,243.719086,-0.154861,89.359268,0.064193,0.148099,-9.904536,-132.178131,-79.183090,153.848389,-12.554702,3.488796,9.904536,1.019887,0.000000,0.000000,0.000000,1.012604,0.204774,-32.880234,0.115143,0.000000,0.027032,0.027032,0.007277,1.000000,2130.822266
0.000037,0.027000,0.000000,0.115165,-0.008607,0.015885,0.000000,0.000000,0.000000,0.775761,0.000000,0.000000,0.000000,0.000000,0.000000,1.000000,1.000000,1.000000,1.000000,1.000000,1.000000,3.000000,0.000000,0.000000,0.000000,0.999985,0.999985,0.000000,0.000000,1.000000,1.000000,1.000000,1.000000,1.000000,1.000000,0,0,0,0,0,0,0,0,0,0,0,0,0,50.1443201176,14.3685433703,5024.398438,-1.290207,5.098144,243.764709,-0.208268,89.339592,0.064275,0.148067,-9.915212,-132.145370,-79.178741,153.807907,-12.687888,3.482572,9.915212,1.019199,0.000000,0.000000,0.000000,1.000823,0.234722,-32.858624,0.115143,0.000000,0.027032,0.027032,0.007277,1.000000,2130.698242
0.000037,0.027000,0.000000,0.115165,-0.008607,0.007950,0.000000,0.000000,0.000000,0.775761,0.000000,0.000000,0.000000,0.000000,0.000000,1.000000,1.000000,1.000000,1.000000,1.000000,1.000000,3.000000,0.000000,0.000000,0.000000,0.999985,0.999985,0.000000,0.000000,1.000000,1.000000,1.000000,1.000000,1.000000,1.000000,0,0,0,0,0,0,0,0,0,0,0,0,0,50.1443165011,14.3685339828,5024.559570,-1.295652,5.102763,243.809799,-0.260839,89.319725,0.064354,0.148035,-9.925533,-132.112793,-79.173584,153.767212,-12.818737,3.476844,9.925533,1.018527,0.000000,0.000000,0.000000,0.990262,0.296557,-32.837067,0.115143,0.000000,0.027032,0.027032,-0.000657,1.000000,2130.574219
0.000083,0.027000,0.000000,0.115165,-0.008607,0.015885,0.000000,0.000000,0.000000,0.775761,0.000000,0.000000,0.000000,0.000000,0.000000,1.000000,1.000000,1.000000,1.000000,1.000000,1.000000,3.000000,0.000000,0.000000,0.000000,0.999985,0.999985,0.000000,0.000000,1.000000,1.000000,1.000000,1.000000,1.000000,1.000000,0,0,0,0,0,0,0,0,0,0,0,0,0,50.1443110767,14.3685199058,5024.801270,-1.301282,5.109619,243.876236,-0.338314,89.289558,0.064469,0.147986,-9.940330,-132.063782,-79.165413,153.705841,-13.011202,3.469316,9.940330,1.017560,0.000000,0.000000,0.000000,0.973067,0.305491,-32.807140,0.115143,0.000000,0.027078,0.027078,0.007277,1.000000,2130.387939
0.000083,0.027000,0.000000,0.115165,-0.008607,0.015885,0.000000,0.000000,0.000000,0.775761,0.000000,0.000000,0.000000,0.000000,0.000000,1.000000,1.000000,1.000000,1.000000,1.000000,1.000000,3.000000,0.000000,0.000000,0.000000,0.999985,0.999985,0.000000,0.000000,1.000000,1.000000,1.000000,1.000000,1.000000,1.000000,0,0,0,0,0,0,0,0,0,0,0,0,0,50.1443092688,14.3685152147,5024.881836,-1.302488,5.111891,243.898056,-0.363750,89.279465,0.064506,0.147970,-9.945110,-132.047424,-79.162521,153.685303,-13.074283,3.467082,9.945110,1.017295,0.000000,0.000000,0.000000,0.968168,0.317745,-32.798813,0.115143,0.000000,0.027078,0.027078,0.007277,1.000000,2130.326172
0.000452,0.027000,0.000000,0.115165,-0.008607,0.015885,0.000000,0.000000,0.000000,0.775761,0.000000,0.000000,0.000000,0.000000,0.000000,1.000000,1.000000,1.000000,1.000000,1.000000,1.000000,3.000000,0.000000,0.000000,0.000000,0.999985,0.999985,0.000000,0.000000,1.000000,1.000000,1.000000,1.000000,1.000000,1.000000,0,0,0,0,0,0,0,0,0,0,0,0,0,50.1443020375,14.3684964558,5025.205078,-1.303950,5.120944,243.983643,-0.463325,89.238472,0.064651,0.147905,-9.963379,-131.982086,-79.149757,153.602783,-13.320615,3.459740,9.963379,1.016062,0.000000,0.000000,0.000000,0.947574,0.373390,-32.759758,0.115143,0.000000,0.027447,0.027447,0.007277,1.000000,2130.077881
0.000747,0.027000,0.000000,0.115165,-0.008607,0.007950,0.000000,0.000000,0.000000,0.775761,0.000000,0.000000,0.000000,0.000000,0.000000,1.000000,1.000000,1.000000,1.000000,1.000000,1.000000,3.000000,0.000000,0.000000,0.000000,0.999985,0.999985,0.000000,0.000000,1.000000,1.000000,1.000000,1.000000,1.000000,1.000000,0,0,0,0,0,0,0,0,0,0,0,0,0,50.1442984223,14.3684870798,5025.366699,-1.302626,5.125460,244.025345,-0.511596,89.217743,0.064720,0.147872,-9.972072,-131.949646,-79.142334,153.561340,-13.439595,3.457030,9.972072,1.015510,0.000000,0.000000,0.000000,0.939079,0.432256,-32.741741,0.115143,0.000000,0.027742,0.027742,-0.000657,1.000000,2129.953613
0.001222,0.027000,0.000000,0.115165,-0.008607,0.007950,0.000000,0.000000,0.000000,0.775761,0.000000,0.000000,0.000000,0.000000,0.000000,1.000000,1.000000,1.000000,1.000000,1.000000,1.000000,3.000000,0.000000,0.000000,0.000000,0.999985,0.999985,0.000000,0.000000,1.000000,1.000000,1.000000,1.000000,1.000000,1.000000,0,0,0,0,0,0,0,0,0,0,0,0,0,50.1442948075,14.3684777061,5025.528809,-1.299863,5.129973,244.066162,-0.558765,89.196869,0.064788,0.147839,-9.980485,-131.917297,-79.134346,153.519821,-13.555550,3.454994,9.980485,1.014986,0.000000,0.000000,0.000000,0.930067,0.457549,-32.724998,0.115143,0.000000,0.028216,0.028216,-0.000657,1.000000,2129.829346
0.001810,0.027000,0.000000,0.115165,-0.008607,0.007950,0.000000,0.000000,0.000000,0.775761,0.000000,0.000000,0.000000,0.000000,0.000000,1.000000,1.000000,1.000000,1.000000,1.000000,1.000000,3.000000,0.000000,0.000000,0.000000,0.999985,0.999985,0.000000,0.000000,1.000000,1.000000,1.000000,1.000000,1.000000,1.000000,0,0,0,0,0,0,0,0,0,0,0,0,0,50.1442911930,14.3684683348,5025.690918,-1.295623,5.134487,244.106033,-0.604810,89.175835,0.064854,0.147805,-9.988631,-131.884979,-79.125908,153.478256,-13.668430,3.453644,9.988631,1.014490,0.000000,0.000000,0.000000,0.921462,0.482338,-32.709087,0.115143,0.000000,0.028804,0.028804,-0.000657,1.000000,2129.704834
0.002667,0.027000,0.000000,0.115165,-0.008607,0.015885,0.000000,0.000000,0.000000,0.775761,0.000000,0.000000,0.000000,0.000000,0.000000,1.000000,1.000000,1.000000,1.000000,1.000000,1.000000,3.000000,0.000000,0.000000,0.000000,0.999985,0.999985,0.000000,0.000000,1.000000,1.000000,1.000000,1.000000,1.000000,1.000000,0,0,0,0,0,0,0,0,0,0,0,0,0,50.1442875790,14.3684589657,5025.853027,-1.289882,5.139000,244.144928,-0.649834,89.154671,0.064919,0.147772,-9.996517,-131.852539,-79.117378,153.436661,-13.778537,3.452984,9.996517,1.014022,0.000000,0.000000,0.000000,0.912172,0.474702,-32.694370,0.115143,0.000000,0.029661,0.029661,0.007277,1.000000,2129.580078
0.004881,0.027000,0.000008,0.115165,-0.008607,0.015885,0.000000,0.000000,0.000000,0.775761,0.000000,0.000000,0.000000,0.000000,0.000000,1.000000,1.000000,1.000000,1.000000,1.000000,1.000000,3.000000,0.000000,0.000000,0.000000,0.999985,0.999985,0.000000,0.000000,1.000000,1.000000,1.000000,1.000000,1.000000,1.000000,0,0,0,0,0,0,0,0,0,0,0,0,0,50.1442803521,14.3684402344,5026.177734,-1.273851,5.148026,244.219894,-0.736599,89.111938,0.065044,0.147704,-10.011586,-131.787674,-79.099213,153.353394,-13.989793,3.453715,10.011586,1.013170,0.000000,0.000000,0.000000,0.896848,0.524802,-32.666370,0.115151,0.000000,0.031875,0.031875,0.007277,1.000000,2129.330322
0.006239,0.027000,0.000094,0.115165,-0.008607,0.015885,0.000000,0.000000,0.000000,0.775761,0.000000,0.000000,0.000000,0.000000,0.000000,1.000000,1.000000,1.000000,1.000000,1.000000,1.000000,3.000000,0.000000,0.000000,0.000000,0.999985,0.999985,0.000000,0.000000,1.000000,1.000000,1.000000,1.000000,1.000000,1.000000,0,0,0,0,0,0,0,0,0,0,0,0,0,50.1442767392,14.3684308722,5026.340332,-1.263458,5.152535,244.255920,-0.778245,89.090393,0.065105,0.147670,-10.018817,-131.755310,-79.089455,153.311768,-14.090688,3.455094,10.018817,1.012818,0.000000,0.000000,0.000000,0.890298,0.549070,-32.654335,0.115237,0.000000,0.033233,0.033233,0.007277,1.000000,2129.205078
